{"type":"FeatureCollection","features":[{"type":"Feature","properties":{"id":"2fe93b39152409f09058af05","name":"泰山區明志國民小學地下停車場","category":"parking","facilityType":"offstreet-parking","sourceUpdatedAt":"2026-07-21T02:58:29.534Z","carCapacity":31},"geometry":{"type":"Point","coordinates":[121.4268987,25.044713]}},{"type":"Feature","properties":{"id":"e7ac8614087c8d37a7355df0","name":"武泰臻和停車場","category":"parking","facilityType":"offstreet-parking","sourceUpdatedAt":"2026-07-21T02:58:29.534Z","carCapacity":47},"geometry":{"type":"Point","coordinates":[121.4279415,25.0513637]}},{"type":"Feature","properties":{"id":"36ba5b906c076271701a0f61","name":"泰山公有市場地下停車場","category":"parking","facilityType":"offstreet-parking","sourceUpdatedAt":"2026-07-21T02:58:29.534Z","carCapacity":128},"geometry":{"type":"Point","coordinates":[121.4342897,25.0562385]}},{"type":"Feature","properties":{"id":"25ddcc96e56dfb3c0876c881","name":"義學立體停車場","category":"parking","facilityType":"offstreet-parking","sourceUpdatedAt":"2026-07-21T02:58:29.534Z","carCapacity":555},"geometry":{"type":"Point","coordinates":[121.4271489,25.0491541]}},{"type":"Feature","properties":{"id":"9406f6cab97374da5b18ee45","name":"嘟嘟房泰山泰林站停車場","category":"parking","facilityType":"offstreet-parking","sourceUpdatedAt":"2026-07-21T02:58:29.534Z","carCapacity":73},"geometry":{"type":"Point","coordinates":[121.4349773,25.0586922]}},{"type":"Feature","properties":{"id":"bdb1e0cd070d0294dbb3de40","name":"金璽收費停車場","category":"parking","facilityType":"offstreet-parking","sourceUpdatedAt":"2026-07-21T02:58:29.534Z","carCapacity":26},"geometry":{"type":"Point","coordinates":[121.4207397,25.0308551]}},{"type":"Feature","properties":{"id":"932acf218f7556c2bd6240fd","name":"A5泰山站停車場","category":"parking","facilityType":"offstreet-parking","sourceUpdatedAt":"2026-07-21T02:58:29.534Z","carCapacity":14},"geometry":{"type":"Point","coordinates":[121.4396274,25.0530359]}},{"type":"Feature","properties":{"id":"c2fedc7d12e178f1cf597942","name":"A6泰山貴和站停車場","category":"parking","facilityType":"offstreet-parking","sourceUpdatedAt":"2026-07-21T02:58:29.534Z","carCapacity":28},"geometry":{"type":"Point","coordinates":[121.4225041,25.0333229]}},{"type":"Feature","properties":{"id":"8e30048bbf84fc0ceaac0c92","name":"泰山區南林段平面停車場","category":"parking","facilityType":"offstreet-parking","sourceUpdatedAt":"2026-07-21T02:58:29.534Z","carCapacity":80},"geometry":{"type":"Point","coordinates":[121.4162899,25.0521073]}},{"type":"Feature","properties":{"id":"bcf5bf51c2f3185cee1ac79b","name":"新北市立義學國民中學教學大樓地下停車場","category":"parking","facilityType":"offstreet-parking","sourceUpdatedAt":"2026-07-21T02:58:29.534Z","carCapacity":30},"geometry":{"type":"Point","coordinates":[121.4307159,25.0511715]}},{"type":"Feature","properties":{"id":"06de5caa1cc5ed9c9a178831","name":"俊行記停車場","category":"parking","facilityType":"offstreet-parking","sourceUpdatedAt":"2026-07-21T02:58:29.534Z","carCapacity":29},"geometry":{"type":"Point","coordinates":[121.4347014,25.0588627]}},{"type":"Feature","properties":{"id":"ceda4d23e0a1947b45a810c9","name":"同榮492停車場","category":"parking","facilityType":"offstreet-parking","sourceUpdatedAt":"2026-07-21T02:58:29.534Z","carCapacity":122},"geometry":{"type":"Point","coordinates":[121.429239,25.0550913]}},{"type":"Feature","properties":{"id":"4a68072aa606165f8af1b7a0","name":"泰山區山腳平面停車場","category":"parking","facilityType":"offstreet-parking","sourceUpdatedAt":"2026-07-21T02:58:29.534Z","carCapacity":57},"geometry":{"type":"Point","coordinates":[121.428994,25.0653001]}},{"type":"Feature","properties":{"id":"81b0835d050557fe7c3e0e6e","name":"泰山區台貿三村平面停車場","category":"parking","facilityType":"offstreet-parking","sourceUpdatedAt":"2026-07-21T02:58:29.534Z","carCapacity":113},"geometry":{"type":"Point","coordinates":[121.431134,25.0670003]}},{"type":"Feature","properties":{"id":"532fa45d8433e4aab1c8940f","name":"俥萊信華場停車場","category":"parking","facilityType":"offstreet-parking","sourceUpdatedAt":"2026-07-21T02:58:29.534Z","carCapacity":20},"geometry":{"type":"Point","coordinates":[121.441225,25.0458267]}},{"type":"Feature","properties":{"id":"f69297b7a53136264103e963","name":"Times泰山壽山路停車場","category":"parking","facilityType":"offstreet-parking","sourceUpdatedAt":"2026-07-21T02:58:29.534Z","carCapacity":9},"geometry":{"type":"Point","coordinates":[121.4184171,25.0302893]}},{"type":"Feature","properties":{"id":"68edc79934c44aa0a343d820","name":"泰山區明志國民小學前庭平面停車場","category":"parking","facilityType":"offstreet-parking","sourceUpdatedAt":"2026-07-21T02:58:29.534Z","carCapacity":14},"geometry":{"type":"Point","coordinates":[121.4270615,25.0453733]}},{"type":"Feature","properties":{"id":"ef19b6551b90a3ac9d5399a5","name":"Times泰山全興福興停車場","category":"parking","facilityType":"offstreet-parking","sourceUpdatedAt":"2026-07-21T02:58:29.534Z","carCapacity":21},"geometry":{"type":"Point","coordinates":[121.4334467,25.0574869]}},{"type":"Feature","properties":{"id":"731d0f4f4d579960c7e4b8c1","name":"仁星有限公司收費停車場","category":"parking","facilityType":"offstreet-parking","sourceUpdatedAt":"2026-07-21T02:58:29.534Z","carCapacity":9},"geometry":{"type":"Point","coordinates":[121.4335485,25.0568266]}},{"type":"Feature","properties":{"id":"6eb12f5c947006e61b4f75c7","name":"Times南亞科技停車場","category":"parking","facilityType":"offstreet-parking","sourceUpdatedAt":"2026-07-21T02:58:29.534Z","carCapacity":189},"geometry":{"type":"Point","coordinates":[121.4104552,25.0434141]}},{"type":"Feature","properties":{"id":"a78eead10f497d0d51cb841f","name":"全聯泰山全興停車場","category":"parking","facilityType":"offstreet-parking","sourceUpdatedAt":"2026-07-21T02:58:29.534Z","carCapacity":20},"geometry":{"type":"Point","coordinates":[121.433608,25.057213]}},{"type":"Feature","properties":{"id":"d229be19866b04947730bb51","name":"新明臨時平面停車場","category":"parking","facilityType":"offstreet-parking","sourceUpdatedAt":"2026-07-21T02:58:29.534Z","carCapacity":24},"geometry":{"type":"Point","coordinates":[121.427632,25.0438568]}},{"type":"Feature","properties":{"id":"609663b53a5cf04ff85eba52","name":"泰山區文中二臨時平面停車場","category":"parking","facilityType":"offstreet-parking","sourceUpdatedAt":"2026-07-21T02:58:29.534Z","carCapacity":109},"geometry":{"type":"Point","coordinates":[121.4385051,25.0437411]}}]}
