{"type":"FeatureCollection","features":[{"type":"Feature","properties":{"id":"6a09a536c385ad3c58813ebf","name":"鼎冠小吃店停車場","category":"parking","facilityType":"offstreet-parking","sourceUpdatedAt":"2026-07-20T06:01:00.530Z","carCapacity":6},"geometry":{"type":"Point","coordinates":[121.3758959,24.9423168]}},{"type":"Feature","properties":{"id":"01d9916e7d9d0b2cb3f92b8c","name":"台灣聯通三峽停車場","category":"parking","facilityType":"offstreet-parking","sourceUpdatedAt":"2026-07-20T06:01:00.530Z","carCapacity":21},"geometry":{"type":"Point","coordinates":[121.3699342,24.9364768]}},{"type":"Feature","properties":{"id":"b64d3837973abd49a8ca6d47","name":"悅灣悠悅社區停車場","category":"parking","facilityType":"offstreet-parking","sourceUpdatedAt":"2026-07-20T06:01:00.530Z","carCapacity":111},"geometry":{"type":"Point","coordinates":[121.3773287,24.9361341]}},{"type":"Feature","properties":{"id":"ddfb7f084633db18fc5cad92","name":"祥耀停車場","category":"parking","facilityType":"offstreet-parking","sourceUpdatedAt":"2026-07-20T06:01:00.530Z","carCapacity":40},"geometry":{"type":"Point","coordinates":[121.375102,24.9326088]}},{"type":"Feature","properties":{"id":"a50c4aea79e661ed81a77b58","name":"詮營停車第二停車場","category":"parking","facilityType":"offstreet-parking","sourceUpdatedAt":"2026-07-20T06:01:00.530Z","carCapacity":50},"geometry":{"type":"Point","coordinates":[121.3624243,24.9366442]}},{"type":"Feature","properties":{"id":"98f061758d71156e9d06dc18","name":"Times三峽大學路第3停車場","category":"parking","facilityType":"offstreet-parking","sourceUpdatedAt":"2026-07-20T06:01:00.530Z","carCapacity":25},"geometry":{"type":"Point","coordinates":[121.3740209,24.94477]}},{"type":"Feature","properties":{"id":"d768a9f900ab8d3ccdd11f4b","name":"富山三峽國成街停車場(一區)","category":"parking","facilityType":"offstreet-parking","sourceUpdatedAt":"2026-07-20T06:01:00.530Z","carCapacity":49},"geometry":{"type":"Point","coordinates":[121.3731315,24.9407853]}},{"type":"Feature","properties":{"id":"0c6225079309ba7b4b43ae4d","name":"富山三峽國成街停車場(二區)","category":"parking","facilityType":"offstreet-parking","sourceUpdatedAt":"2026-07-20T06:01:00.530Z","carCapacity":11},"geometry":{"type":"Point","coordinates":[121.3732412,24.9407128]}},{"type":"Feature","properties":{"id":"9e126a90171b9a9afbd5e978","name":"三峽區中園國民小學停車場","category":"parking","facilityType":"offstreet-parking","sourceUpdatedAt":"2026-07-20T06:01:00.530Z","carCapacity":76},"geometry":{"type":"Point","coordinates":[121.3671612,24.9279564]}},{"type":"Feature","properties":{"id":"e56a47804156788aaa9090c2","name":"禮頓企業有限公司國際一街上水停車場","category":"parking","facilityType":"offstreet-parking","sourceUpdatedAt":"2026-07-20T06:01:00.530Z","carCapacity":22},"geometry":{"type":"Point","coordinates":[121.374247,24.9429186]}},{"type":"Feature","properties":{"id":"295c540564e53465d38517c1","name":"Times三峽中山路停車場","category":"parking","facilityType":"offstreet-parking","sourceUpdatedAt":"2026-07-20T06:01:00.530Z","carCapacity":6},"geometry":{"type":"Point","coordinates":[121.3612801,24.9374785]}},{"type":"Feature","properties":{"id":"fe097a852a5f1e96feacb5d7","name":"Times三峽和平街停車場","category":"parking","facilityType":"offstreet-parking","sourceUpdatedAt":"2026-07-20T06:01:00.530Z","carCapacity":13},"geometry":{"type":"Point","coordinates":[121.3701835,24.9353964]}},{"type":"Feature","properties":{"id":"d732526f457f9b7d1ddb7fc0","name":"Times三峽文化路停車場","category":"parking","facilityType":"offstreet-parking","sourceUpdatedAt":"2026-07-20T06:01:00.530Z","carCapacity":23},"geometry":{"type":"Point","coordinates":[121.3717511,24.9368063]}},{"type":"Feature","properties":{"id":"831a6bbf580f443da98badcb","name":"禮頓企業有限公司大觀停車場","category":"parking","facilityType":"offstreet-parking","sourceUpdatedAt":"2026-07-20T06:01:00.530Z","carCapacity":36},"geometry":{"type":"Point","coordinates":[121.3738595,24.9467458]}},{"type":"Feature","properties":{"id":"d228a3760bed9e53f6102ec5","name":"Times 三峽大德路停車場","category":"parking","facilityType":"offstreet-parking","sourceUpdatedAt":"2026-07-20T06:01:00.530Z","carCapacity":23},"geometry":{"type":"Point","coordinates":[121.3755214,24.9455137]}},{"type":"Feature","properties":{"id":"30c0a5648152c1f217914fcb","name":"禮頓企業有限公司三峽大同路停車場","category":"parking","facilityType":"offstreet-parking","sourceUpdatedAt":"2026-07-20T06:01:00.530Z","carCapacity":13},"geometry":{"type":"Point","coordinates":[121.3669641,24.9265665]}},{"type":"Feature","properties":{"id":"9cfa017301551afaa56e3c46","name":"詮營停車第一停車場","category":"parking","facilityType":"offstreet-parking","sourceUpdatedAt":"2026-07-20T06:01:00.530Z","carCapacity":113},"geometry":{"type":"Point","coordinates":[121.3634836,24.937614]}},{"type":"Feature","properties":{"id":"ddd1030fe1d917a81963b7f1","name":"三峽區三峽公有零售市場所屬停車場","category":"parking","facilityType":"offstreet-parking","sourceUpdatedAt":"2026-07-20T06:01:00.530Z","carCapacity":92},"geometry":{"type":"Point","coordinates":[121.3707677,24.9350798]}},{"type":"Feature","properties":{"id":"55320507f531750c31d23876","name":"國立臺北大學三峽校區停車場","category":"parking","facilityType":"offstreet-parking","sourceUpdatedAt":"2026-07-20T06:01:00.530Z","carCapacity":56},"geometry":{"type":"Point","coordinates":[121.3730541,24.9450008]}},{"type":"Feature","properties":{"id":"fd7e065ac1d1d453a612ad72","name":"嘟嘟房三峽大德站停車場","category":"parking","facilityType":"offstreet-parking","sourceUpdatedAt":"2026-07-20T06:01:00.530Z","carCapacity":24},"geometry":{"type":"Point","coordinates":[121.3755283,24.9455227]}},{"type":"Feature","properties":{"id":"5c8d65b25602f57c5c7346a7","name":"好庭車三峽北大停車場","category":"parking","facilityType":"offstreet-parking","sourceUpdatedAt":"2026-07-20T06:01:00.530Z","carCapacity":34},"geometry":{"type":"Point","coordinates":[121.3718749,24.941424]}},{"type":"Feature","properties":{"id":"61405a26646cbaa77a3ff171","name":"Times三峽中山路第2停車場","category":"parking","facilityType":"offstreet-parking","sourceUpdatedAt":"2026-07-20T06:01:00.530Z","carCapacity":8},"geometry":{"type":"Point","coordinates":[121.3615341,24.9376503]}},{"type":"Feature","properties":{"id":"89183c3f0de08fb15e4bc06e","name":"禮頓企業有限公司國際二街停車場","category":"parking","facilityType":"offstreet-parking","sourceUpdatedAt":"2026-07-20T06:01:00.530Z","carCapacity":37},"geometry":{"type":"Point","coordinates":[121.371933,24.942884]}},{"type":"Feature","properties":{"id":"2c6c1018401dbceeac5aaa3d","name":"新北市三峽國民運動中心收費停車場","category":"parking","facilityType":"offstreet-parking","sourceUpdatedAt":"2026-07-20T06:01:00.530Z","carCapacity":132},"geometry":{"type":"Point","coordinates":[121.368785,24.937168]}},{"type":"Feature","properties":{"id":"d7641be863766ea4bc9bb758","name":"新北市市立殯儀館三峽火化場立體停車場","category":"parking","facilityType":"offstreet-parking","sourceUpdatedAt":"2026-07-20T06:01:00.530Z","carCapacity":96},"geometry":{"type":"Point","coordinates":[121.4079716,24.9485703]}},{"type":"Feature","properties":{"id":"90e604e9faca4619e16f3185","name":"北大國民小學停車場","category":"parking","facilityType":"offstreet-parking","sourceUpdatedAt":"2026-07-20T06:01:00.530Z","carCapacity":21},"geometry":{"type":"Point","coordinates":[121.373237,24.939151]}},{"type":"Feature","properties":{"id":"9b0ead33d86a9d645441dde8","name":"長揚停車場三峽站","category":"parking","facilityType":"offstreet-parking","sourceUpdatedAt":"2026-07-20T06:01:00.530Z","carCapacity":4},"geometry":{"type":"Point","coordinates":[121.3713688,24.9404015]}},{"type":"Feature","properties":{"id":"5173d1b19b317847118c7230","name":"禮頓企業股份有限公司北大學成二站停車場","category":"parking","facilityType":"offstreet-parking","sourceUpdatedAt":"2026-07-20T06:01:00.530Z","carCapacity":24},"geometry":{"type":"Point","coordinates":[121.3747428,24.9421752]}},{"type":"Feature","properties":{"id":"b14dd1633e4fb8f9bd47bee6","name":"大板根酒店本館地下室收費停車場","category":"parking","facilityType":"offstreet-parking","sourceUpdatedAt":"2026-07-20T06:01:00.530Z","carCapacity":125},"geometry":{"type":"Point","coordinates":[121.4070818,24.870891]}},{"type":"Feature","properties":{"id":"4a4ab4bdc474ca9895af3a86","name":"滿月圓國家森林遊樂區停車場","category":"parking","facilityType":"offstreet-parking","sourceUpdatedAt":"2026-07-20T06:01:00.530Z","carCapacity":110},"geometry":{"type":"Point","coordinates":[121.4457992,24.8327105]}},{"type":"Feature","properties":{"id":"4d6f27159031ed8f76893940","name":"Times三峽清水街停車場","category":"parking","facilityType":"offstreet-parking","sourceUpdatedAt":"2026-07-20T06:01:00.530Z","carCapacity":3},"geometry":{"type":"Point","coordinates":[121.3741742,24.935205]}},{"type":"Feature","properties":{"id":"37801a9cc450e0794473c61b","name":"嘟嘟房三峽大德2站停車場","category":"parking","facilityType":"offstreet-parking","sourceUpdatedAt":"2026-07-20T06:01:00.530Z","carCapacity":85},"geometry":{"type":"Point","coordinates":[121.3774272,24.9427833]}}]}
