{"type":"FeatureCollection","features":[{"type":"Feature","properties":{"id":"51b3855db754d97bb3718d5e","name":"民安平面停車場","category":"parking","facilityType":"offstreet-parking","sourceUpdatedAt":"2026-07-20T06:01:00.530Z","carCapacity":261},"geometry":{"type":"Point","coordinates":[121.42454,25.02837]}},{"type":"Feature","properties":{"id":"6ccb4f23c66e6eb46afdc063","name":"丹鳳國小收費停車場","category":"parking","facilityType":"offstreet-parking","sourceUpdatedAt":"2026-07-20T06:01:00.530Z","carCapacity":16},"geometry":{"type":"Point","coordinates":[121.413735,25.024366]}},{"type":"Feature","properties":{"id":"6ba100f28bbac11995aca3b4","name":"新莊新豐綜合行政大樓附設收費停車場","category":"parking","facilityType":"offstreet-parking","sourceUpdatedAt":"2026-07-20T06:01:00.530Z","carCapacity":104},"geometry":{"type":"Point","coordinates":[121.431272,25.000592]}},{"type":"Feature","properties":{"id":"69fe8dd82c69b78eb0182381","name":"新莊思源場停車場","category":"parking","facilityType":"offstreet-parking","sourceUpdatedAt":"2026-07-20T06:01:00.530Z","carCapacity":13},"geometry":{"type":"Point","coordinates":[121.4612762,25.0518056]}},{"type":"Feature","properties":{"id":"21c4e1ccf59790857b754002","name":"捷運迴龍站停車場","category":"parking","facilityType":"offstreet-parking","sourceUpdatedAt":"2026-07-20T06:01:00.530Z","carCapacity":254},"geometry":{"type":"Point","coordinates":[121.4129666,25.022757]}},{"type":"Feature","properties":{"id":"6a229f6a555919b05dbad708","name":"成功停車場","category":"parking","facilityType":"offstreet-parking","sourceUpdatedAt":"2026-07-20T06:01:00.530Z","carCapacity":41},"geometry":{"type":"Point","coordinates":[121.4215312,25.0182938]}},{"type":"Feature","properties":{"id":"3635682263d027920d5baa5e","name":"冠德泰景停車場","category":"parking","facilityType":"offstreet-parking","sourceUpdatedAt":"2026-07-20T06:01:00.530Z","carCapacity":70},"geometry":{"type":"Point","coordinates":[121.4626471,25.0497583]}},{"type":"Feature","properties":{"id":"812a2310393f1e39b8373550","name":"中信國小收費停車場","category":"parking","facilityType":"offstreet-parking","sourceUpdatedAt":"2026-07-20T06:01:00.530Z","carCapacity":27},"geometry":{"type":"Point","coordinates":[121.4483108,25.0518002]}},{"type":"Feature","properties":{"id":"d0e470ea7b0c2ad34cf19ee5","name":"宜家家居股份有限公司新莊分公司停車場","category":"parking","facilityType":"offstreet-parking","sourceUpdatedAt":"2026-07-20T06:01:00.530Z","carCapacity":641},"geometry":{"type":"Point","coordinates":[121.4647633,25.0414214]}},{"type":"Feature","properties":{"id":"4afadac3e34d5489505aa337","name":"新莊區農會停車場","category":"parking","facilityType":"offstreet-parking","sourceUpdatedAt":"2026-07-20T06:01:00.530Z","carCapacity":345},"geometry":{"type":"Point","coordinates":[121.4582263,25.0378576]}},{"type":"Feature","properties":{"id":"0ad634c9e77b328789e1fbaf","name":"鳳凰花園停車場","category":"parking","facilityType":"offstreet-parking","sourceUpdatedAt":"2026-07-20T06:01:00.530Z","carCapacity":93},"geometry":{"type":"Point","coordinates":[121.4447355,25.0348922]}},{"type":"Feature","properties":{"id":"ced0d3ec734e052a3b5e0f09","name":"Times新莊新泰路第2停車場","category":"parking","facilityType":"offstreet-parking","sourceUpdatedAt":"2026-07-20T06:01:00.530Z","carCapacity":7},"geometry":{"type":"Point","coordinates":[121.4480884,25.0364196]}},{"type":"Feature","properties":{"id":"770ef42fa4d0bd0ea5d0952e","name":"新莊君泰停車場","category":"parking","facilityType":"offstreet-parking","sourceUpdatedAt":"2026-07-20T06:01:00.530Z","carCapacity":100},"geometry":{"type":"Point","coordinates":[121.4130918,25.0276075]}},{"type":"Feature","properties":{"id":"fcb87fc544fb86d808abef49","name":"聯邦企業廣場大樓收費停車場","category":"parking","facilityType":"offstreet-parking","sourceUpdatedAt":"2026-07-20T06:01:00.530Z","carCapacity":32},"geometry":{"type":"Point","coordinates":[121.4578812,25.0601978]}},{"type":"Feature","properties":{"id":"727ce846ee26ddc9826e4a37","name":"新莊區中正停車場(二)","category":"parking","facilityType":"offstreet-parking","sourceUpdatedAt":"2026-07-20T06:01:00.530Z","carCapacity":19},"geometry":{"type":"Point","coordinates":[121.432905,25.0316273]}},{"type":"Feature","properties":{"id":"d8b878a16340a7f70dd22623","name":"新莊區中正停車場","category":"parking","facilityType":"offstreet-parking","sourceUpdatedAt":"2026-07-20T06:01:00.530Z","carCapacity":168},"geometry":{"type":"Point","coordinates":[121.4313345,25.0313926]}},{"type":"Feature","properties":{"id":"f172db5eefbe13e433eef307","name":"好市多新莊店第二停車場","category":"parking","facilityType":"offstreet-parking","sourceUpdatedAt":"2026-07-20T06:01:00.530Z","carCapacity":30},"geometry":{"type":"Point","coordinates":[121.4348318,25.0264178]}},{"type":"Feature","properties":{"id":"4ccd050f1ad7418d5fa3c097","name":"副都68停車場","category":"parking","facilityType":"offstreet-parking","sourceUpdatedAt":"2026-07-20T06:01:00.530Z","carCapacity":50},"geometry":{"type":"Point","coordinates":[121.455387,25.0573887]}},{"type":"Feature","properties":{"id":"3c2412533255ea15e01513af","name":"博客停車場開發股份有限公司藏壽司思源場停車場","category":"parking","facilityType":"offstreet-parking","sourceUpdatedAt":"2026-07-20T06:01:00.530Z","carCapacity":26},"geometry":{"type":"Point","coordinates":[121.4601752,25.0481265]}},{"type":"Feature","properties":{"id":"48bc95aa818b27149c50a01f","name":"車堡寶實業股份有限公司新莊光明場停車場","category":"parking","facilityType":"offstreet-parking","sourceUpdatedAt":"2026-07-20T06:01:00.530Z","carCapacity":61},"geometry":{"type":"Point","coordinates":[121.424494,25.0163713]}},{"type":"Feature","properties":{"id":"4157652d50cd3034c7e5595c","name":"新北新莊凱悅嘉軒酒店停車場","category":"parking","facilityType":"offstreet-parking","sourceUpdatedAt":"2026-07-20T06:01:00.530Z","carCapacity":172},"geometry":{"type":"Point","coordinates":[121.4541566,25.0602264]}},{"type":"Feature","properties":{"id":"6ea749c3dbae8d13d1c73391","name":"Times新莊五工三路第2停車場","category":"parking","facilityType":"offstreet-parking","sourceUpdatedAt":"2026-07-20T06:01:00.530Z","carCapacity":17},"geometry":{"type":"Point","coordinates":[121.459083,25.0651271]}},{"type":"Feature","properties":{"id":"004ad407613290bdb5effd9f","name":"Times全聯新莊幸福東店停車場","category":"parking","facilityType":"offstreet-parking","sourceUpdatedAt":"2026-07-20T06:01:00.530Z","carCapacity":10},"geometry":{"type":"Point","coordinates":[121.4616318,25.0493633]}},{"type":"Feature","properties":{"id":"23d5d257ea79298da7e9fca9","name":"禮頓新莊龍安停車場","category":"parking","facilityType":"offstreet-parking","sourceUpdatedAt":"2026-07-20T06:01:00.530Z","carCapacity":19},"geometry":{"type":"Point","coordinates":[121.4152504,25.0230178]}},{"type":"Feature","properties":{"id":"54df966655bb95c35b17945c","name":"新莊區四維立體停車場","category":"parking","facilityType":"offstreet-parking","sourceUpdatedAt":"2026-07-20T06:01:00.530Z","carCapacity":192},"geometry":{"type":"Point","coordinates":[121.4235886,25.0239305]}},{"type":"Feature","properties":{"id":"b603a3e8e242a4bfda5b9831","name":"Times新莊西盛街停車場","category":"parking","facilityType":"offstreet-parking","sourceUpdatedAt":"2026-07-20T06:01:00.530Z","carCapacity":29},"geometry":{"type":"Point","coordinates":[121.428026,25.0168867]}},{"type":"Feature","properties":{"id":"c0fa366f3584199e822d2d95","name":"新北市興化國小附設停車場","category":"parking","facilityType":"offstreet-parking","sourceUpdatedAt":"2026-07-20T06:01:00.530Z","carCapacity":60},"geometry":{"type":"Point","coordinates":[121.4616283,25.0658884]}},{"type":"Feature","properties":{"id":"df76bad942cb3175fc309076","name":"昌和停車場","category":"parking","facilityType":"offstreet-parking","sourceUpdatedAt":"2026-07-20T06:01:00.530Z","carCapacity":146},"geometry":{"type":"Point","coordinates":[121.454392,25.056206]}},{"type":"Feature","properties":{"id":"a49445afc0752c9fa5e67f67","name":"新莊豐盛地下停車場","category":"parking","facilityType":"offstreet-parking","sourceUpdatedAt":"2026-07-20T06:01:00.530Z","carCapacity":126},"geometry":{"type":"Point","coordinates":[121.4326756,24.9998361]}},{"type":"Feature","properties":{"id":"466a4d295a81b8120459a0f5","name":"民安國小地下停車場","category":"parking","facilityType":"offstreet-parking","sourceUpdatedAt":"2026-07-20T06:01:00.530Z","carCapacity":214},"geometry":{"type":"Point","coordinates":[121.4279428,25.0217513]}},{"type":"Feature","properties":{"id":"f5d3853a37d5148ff5767d7d","name":"宜家家居股份有限公司新莊分公司戶外停車場","category":"parking","facilityType":"offstreet-parking","sourceUpdatedAt":"2026-07-20T06:01:00.530Z","carCapacity":42},"geometry":{"type":"Point","coordinates":[121.4656444,25.0409131]}},{"type":"Feature","properties":{"id":"a84ee1d07f8a434bc8ccd123","name":"麗寶商業大樓停車場","category":"parking","facilityType":"offstreet-parking","sourceUpdatedAt":"2026-07-20T06:01:00.530Z","carCapacity":72},"geometry":{"type":"Point","coordinates":[121.4519853,25.0595045]}},{"type":"Feature","properties":{"id":"1ff402e5ce5b5891a3006b02","name":"嘟嘟房新莊中港國小站停車場","category":"parking","facilityType":"offstreet-parking","sourceUpdatedAt":"2026-07-20T06:01:00.530Z","carCapacity":62},"geometry":{"type":"Point","coordinates":[121.4477981,25.0462584]}},{"type":"Feature","properties":{"id":"3d4a91c1f4457b04122140b5","name":"Times新莊中和街(月租)停車場","category":"parking","facilityType":"offstreet-parking","sourceUpdatedAt":"2026-07-20T06:01:00.530Z","carCapacity":4},"geometry":{"type":"Point","coordinates":[121.4465698,25.0439419]}},{"type":"Feature","properties":{"id":"3c60a4869d5b02e8c6e290a5","name":"新莊國民運動中心停車場","category":"parking","facilityType":"offstreet-parking","sourceUpdatedAt":"2026-07-20T06:01:00.530Z","carCapacity":344},"geometry":{"type":"Point","coordinates":[121.4474577,25.0398314]}},{"type":"Feature","properties":{"id":"ddb9d2f16169e95d864c2504","name":"A3新北產業園區站停車場","category":"parking","facilityType":"offstreet-parking","sourceUpdatedAt":"2026-07-20T06:01:00.530Z","carCapacity":68},"geometry":{"type":"Point","coordinates":[121.4600646,25.0617493]}},{"type":"Feature","properties":{"id":"e52dea726e3d1ac7a2a6a69e","name":"A4新莊副都心站停車場","category":"parking","facilityType":"offstreet-parking","sourceUpdatedAt":"2026-07-20T06:01:00.530Z","carCapacity":19},"geometry":{"type":"Point","coordinates":[121.4461136,25.0594627]}},{"type":"Feature","properties":{"id":"532de1b9043b4238e5d21b43","name":"新北宏匯公共停車場","category":"parking","facilityType":"offstreet-parking","sourceUpdatedAt":"2026-07-20T06:01:00.530Z","carCapacity":456},"geometry":{"type":"Point","coordinates":[121.4498233,25.0591499]}},{"type":"Feature","properties":{"id":"bc33f70df9b548c59ae507a8","name":"鴻金寶地下收費停車場","category":"parking","facilityType":"offstreet-parking","sourceUpdatedAt":"2026-07-20T06:01:00.530Z","carCapacity":130},"geometry":{"type":"Point","coordinates":[121.425127,25.023231]}},{"type":"Feature","properties":{"id":"852703f1c8adada3fff5731a","name":"Times新莊中港路停車場","category":"parking","facilityType":"offstreet-parking","sourceUpdatedAt":"2026-07-20T06:01:00.530Z","carCapacity":10},"geometry":{"type":"Point","coordinates":[121.4521443,25.050716]}},{"type":"Feature","properties":{"id":"d92a02afc57e857133dff3e9","name":"聯鈞榮富停車場","category":"parking","facilityType":"offstreet-parking","sourceUpdatedAt":"2026-07-20T06:01:00.530Z","carCapacity":6},"geometry":{"type":"Point","coordinates":[121.4464479,25.0513454]}},{"type":"Feature","properties":{"id":"d74af41d05b88e4c9673966e","name":"Times 新莊中原東福前停車場","category":"parking","facilityType":"offstreet-parking","sourceUpdatedAt":"2026-07-20T06:01:00.530Z","carCapacity":43},"geometry":{"type":"Point","coordinates":[121.4630596,25.0550863]}},{"type":"Feature","properties":{"id":"4d1acd30c2967a3db81c514c","name":"Times新莊中正路第3停車場","category":"parking","facilityType":"offstreet-parking","sourceUpdatedAt":"2026-07-20T06:01:00.530Z","carCapacity":24},"geometry":{"type":"Point","coordinates":[121.4494283,25.0356211]}},{"type":"Feature","properties":{"id":"2fd48cbcb9dbc178b933fa60","name":"善美停車場","category":"parking","facilityType":"offstreet-parking","sourceUpdatedAt":"2026-07-20T06:01:00.530Z","carCapacity":59},"geometry":{"type":"Point","coordinates":[121.4338278,25.0325464]}},{"type":"Feature","properties":{"id":"d03e88159484fae568a7dd81","name":"車堡寶實業股份有限公司中原場停車場","category":"parking","facilityType":"offstreet-parking","sourceUpdatedAt":"2026-07-20T06:01:00.530Z","carCapacity":113},"geometry":{"type":"Point","coordinates":[121.4478925,25.0545009]}},{"type":"Feature","properties":{"id":"8acac02f77dd00581d659a85","name":"新泰游泳池附設停車場","category":"parking","facilityType":"offstreet-parking","sourceUpdatedAt":"2026-07-20T06:01:00.530Z","carCapacity":16},"geometry":{"type":"Point","coordinates":[121.4434028,25.0465235]}},{"type":"Feature","properties":{"id":"8e85164b0ae2b5054d02563f","name":"城市車旅新樹停車場","category":"parking","facilityType":"offstreet-parking","sourceUpdatedAt":"2026-07-20T06:01:00.530Z","carCapacity":8},"geometry":{"type":"Point","coordinates":[121.4330935,25.0020459]}},{"type":"Feature","properties":{"id":"df1e4d695886eaa3c31432b7","name":"台灣聯通中原停車場","category":"parking","facilityType":"offstreet-parking","sourceUpdatedAt":"2026-07-20T06:01:00.530Z","carCapacity":174},"geometry":{"type":"Point","coordinates":[121.4456196,25.0544264]}},{"type":"Feature","properties":{"id":"ea10e0e17ca03a612a81817a","name":"宏匯廣場停車場","category":"parking","facilityType":"offstreet-parking","sourceUpdatedAt":"2026-07-20T06:01:00.530Z","carCapacity":806},"geometry":{"type":"Point","coordinates":[121.449452,25.0600737]}},{"type":"Feature","properties":{"id":"a4653ecd0269ea619ddb63d7","name":"新莊丹鳳1站停車場","category":"parking","facilityType":"offstreet-parking","sourceUpdatedAt":"2026-07-20T06:01:00.530Z","carCapacity":6},"geometry":{"type":"Point","coordinates":[121.4131997,25.0243055]}},{"type":"Feature","properties":{"id":"6772799d2226493aae1a8bc9","name":"新莊副都心停車場","category":"parking","facilityType":"offstreet-parking","sourceUpdatedAt":"2026-07-20T06:01:00.530Z","carCapacity":175},"geometry":{"type":"Point","coordinates":[121.4516886,25.057252]}},{"type":"Feature","properties":{"id":"71258b95ead1dec273e7b476","name":"馥都湛收費停車場","category":"parking","facilityType":"offstreet-parking","sourceUpdatedAt":"2026-07-20T06:01:00.530Z","carCapacity":15},"geometry":{"type":"Point","coordinates":[121.4609894,25.0599138]}},{"type":"Feature","properties":{"id":"6573cd796f4396871a8dd384","name":"立特豐年街停車場","category":"parking","facilityType":"offstreet-parking","sourceUpdatedAt":"2026-07-20T06:01:00.530Z","carCapacity":11},"geometry":{"type":"Point","coordinates":[121.4465906,25.029708]}},{"type":"Feature","properties":{"id":"5fda8b0342501b523feea2cf","name":"燦坤四維場停車場","category":"parking","facilityType":"offstreet-parking","sourceUpdatedAt":"2026-07-20T06:01:00.530Z","carCapacity":28},"geometry":{"type":"Point","coordinates":[121.4210938,25.0199201]}},{"type":"Feature","properties":{"id":"e0017ab496d8af6b5fc1a339","name":"新莊樹新地下停車場","category":"parking","facilityType":"offstreet-parking","sourceUpdatedAt":"2026-07-20T06:01:00.530Z","carCapacity":46},"geometry":{"type":"Point","coordinates":[121.4311403,24.999901]}},{"type":"Feature","properties":{"id":"34ad659637177afe464399cd","name":"中貴停車場","category":"parking","facilityType":"offstreet-parking","sourceUpdatedAt":"2026-07-20T06:01:00.530Z","carCapacity":115},"geometry":{"type":"Point","coordinates":[121.448985,25.058626]}},{"type":"Feature","properties":{"id":"09c0bc2a70687ee9fd0bf82c","name":"嘟嘟房新莊昌隆站停車場","category":"parking","facilityType":"offstreet-parking","sourceUpdatedAt":"2026-07-20T06:01:00.530Z","carCapacity":46},"geometry":{"type":"Point","coordinates":[121.4568783,25.0511538]}},{"type":"Feature","properties":{"id":"a21eb792c5c9781a5a0c5582","name":"新莊區捷運幸福站立體停車場","category":"parking","facilityType":"offstreet-parking","sourceUpdatedAt":"2026-07-20T06:01:00.530Z","carCapacity":109},"geometry":{"type":"Point","coordinates":[121.4605686,25.0496817]}},{"type":"Feature","properties":{"id":"d445f72ad96056164020a9d5","name":"馥都匯收費停車場","category":"parking","facilityType":"offstreet-parking","sourceUpdatedAt":"2026-07-20T06:01:00.530Z","carCapacity":26},"geometry":{"type":"Point","coordinates":[121.4626851,25.057498]}},{"type":"Feature","properties":{"id":"25c8fddd21708e94f09199a1","name":"城市車旅新莊丹鳳停車場","category":"parking","facilityType":"offstreet-parking","sourceUpdatedAt":"2026-07-20T06:01:00.530Z","carCapacity":10},"geometry":{"type":"Point","coordinates":[121.4128716,25.0257654]}},{"type":"Feature","properties":{"id":"3b8a5b2c0e5f3bd01ce67aaf","name":"台灣聯通中誠停車場","category":"parking","facilityType":"offstreet-parking","sourceUpdatedAt":"2026-07-20T06:01:00.530Z","carCapacity":13},"geometry":{"type":"Point","coordinates":[121.4514559,25.0472973]}},{"type":"Feature","properties":{"id":"1482424ef2c79c775469b7ca","name":"碧瑤峰範停車場","category":"parking","facilityType":"offstreet-parking","sourceUpdatedAt":"2026-07-20T06:01:00.530Z","carCapacity":13},"geometry":{"type":"Point","coordinates":[121.4604028,25.0535959]}},{"type":"Feature","properties":{"id":"a59f62729dd88b67bc1fe5f7","name":"新莊生命紀念館停車場","category":"parking","facilityType":"offstreet-parking","sourceUpdatedAt":"2026-07-20T06:01:00.530Z","carCapacity":80},"geometry":{"type":"Point","coordinates":[121.4153886,25.031104]}},{"type":"Feature","properties":{"id":"55fcd310b296de1135fccaa8","name":"Times新莊中正路停車場","category":"parking","facilityType":"offstreet-parking","sourceUpdatedAt":"2026-07-20T06:01:00.530Z","carCapacity":8},"geometry":{"type":"Point","coordinates":[121.4170783,25.0250052]}},{"type":"Feature","properties":{"id":"3e81a20c10e22d33ce413520","name":"中悦IFC收費停車場","category":"parking","facilityType":"offstreet-parking","sourceUpdatedAt":"2026-07-20T06:01:00.530Z","carCapacity":23},"geometry":{"type":"Point","coordinates":[121.445381,25.0550501]}},{"type":"Feature","properties":{"id":"008fce6c8e4ac9e72c35ce9f","name":"博客停車-寶雅新莊四維停車場","category":"parking","facilityType":"offstreet-parking","sourceUpdatedAt":"2026-07-20T06:01:00.530Z","carCapacity":19},"geometry":{"type":"Point","coordinates":[121.4211771,25.0196309]}},{"type":"Feature","properties":{"id":"8187a828654896b23b3e90e0","name":"Times新莊天祥街停車場","category":"parking","facilityType":"offstreet-parking","sourceUpdatedAt":"2026-07-20T06:01:00.530Z","carCapacity":20},"geometry":{"type":"Point","coordinates":[121.4139232,25.0299778]}},{"type":"Feature","properties":{"id":"c009a9967d219cf05d4c51ea","name":"Times  新莊福德一街停車場","category":"parking","facilityType":"offstreet-parking","sourceUpdatedAt":"2026-07-20T06:01:00.530Z","carCapacity":116},"geometry":{"type":"Point","coordinates":[121.4633509,25.0561146]}},{"type":"Feature","properties":{"id":"4fc972524828b19120df78e5","name":"Times新莊中原路第6停車場","category":"parking","facilityType":"offstreet-parking","sourceUpdatedAt":"2026-07-20T06:01:00.530Z","carCapacity":35},"geometry":{"type":"Point","coordinates":[121.4487882,25.0544259]}},{"type":"Feature","properties":{"id":"a12d602488956739104967b4","name":"168停車聯盟-新莊富貴場停車場","category":"parking","facilityType":"offstreet-parking","sourceUpdatedAt":"2026-07-20T06:01:00.530Z","carCapacity":50},"geometry":{"type":"Point","coordinates":[121.4480963,25.0571157]}},{"type":"Feature","properties":{"id":"0759191c629a7fadb293971e","name":"市達停車場西盛街站","category":"parking","facilityType":"offstreet-parking","sourceUpdatedAt":"2026-07-20T06:01:00.530Z","carCapacity":65},"geometry":{"type":"Point","coordinates":[121.4276259,25.0137713]}},{"type":"Feature","properties":{"id":"b709ded8e612d31533cba7c6","name":"新莊廣(停)三臨時平面停車場","category":"parking","facilityType":"offstreet-parking","sourceUpdatedAt":"2026-07-20T06:01:00.530Z","carCapacity":73},"geometry":{"type":"Point","coordinates":[121.439273,25.0303293]}},{"type":"Feature","properties":{"id":"e40447236fee574c46cbd4e6","name":"TimesUNIQLO新莊中正路店停車場","category":"parking","facilityType":"offstreet-parking","sourceUpdatedAt":"2026-07-20T06:01:00.530Z","carCapacity":85},"geometry":{"type":"Point","coordinates":[121.4625539,25.0412839]}},{"type":"Feature","properties":{"id":"9fdf141ac3849afd1e8d65e7","name":"嘟嘟房五工1站停車場","category":"parking","facilityType":"offstreet-parking","sourceUpdatedAt":"2026-07-20T06:01:00.530Z","carCapacity":259},"geometry":{"type":"Point","coordinates":[121.4584032,25.0627566]}},{"type":"Feature","properties":{"id":"55585939b41084a1bd417994","name":"驛林交通股份有限公司輔大醫療大樓站停車場","category":"parking","facilityType":"offstreet-parking","sourceUpdatedAt":"2026-07-20T06:01:00.530Z","carCapacity":135},"geometry":{"type":"Point","coordinates":[121.4313874,25.0385789]}},{"type":"Feature","properties":{"id":"dc43127fd4b6bc80f43bf41c","name":"市達停車場西盛街二站","category":"parking","facilityType":"offstreet-parking","sourceUpdatedAt":"2026-07-20T06:01:00.530Z","carCapacity":60},"geometry":{"type":"Point","coordinates":[121.4282173,25.0128848]}},{"type":"Feature","properties":{"id":"efc33c968160185104ce5a1c","name":"宏達經營管理顧問有限公司昌德停車場","category":"parking","facilityType":"offstreet-parking","sourceUpdatedAt":"2026-07-20T06:01:00.530Z","carCapacity":24},"geometry":{"type":"Point","coordinates":[121.452438,25.0551281]}},{"type":"Feature","properties":{"id":"bdd72bd288faedaae0df4e98","name":"Times新莊新泰路停車場","category":"parking","facilityType":"offstreet-parking","sourceUpdatedAt":"2026-07-20T06:01:00.530Z","carCapacity":16},"geometry":{"type":"Point","coordinates":[121.4481645,25.0366333]}},{"type":"Feature","properties":{"id":"6d4220bd0150e09076437288","name":"嘟嘟房新莊民樂站停車場","category":"parking","facilityType":"offstreet-parking","sourceUpdatedAt":"2026-07-20T06:01:00.530Z","carCapacity":6},"geometry":{"type":"Point","coordinates":[121.4580581,25.0421807]}},{"type":"Feature","properties":{"id":"1c5efdf4e8bf2053fa12d0ac","name":"Times新莊國家影視中心停車場","category":"parking","facilityType":"offstreet-parking","sourceUpdatedAt":"2026-07-20T06:01:00.530Z","carCapacity":96},"geometry":{"type":"Point","coordinates":[121.4469042,25.0563727]}},{"type":"Feature","properties":{"id":"d66ac97ba259a79bc70518c0","name":"Times新莊化成路停車場","category":"parking","facilityType":"offstreet-parking","sourceUpdatedAt":"2026-07-20T06:01:00.530Z","carCapacity":28},"geometry":{"type":"Point","coordinates":[121.465218,25.0516037]}},{"type":"Feature","properties":{"id":"ec75d429eca2421936093a7b","name":"宏達經營管理顧問有限公司昌義停車場","category":"parking","facilityType":"offstreet-parking","sourceUpdatedAt":"2026-07-20T06:01:00.530Z","carCapacity":218},"geometry":{"type":"Point","coordinates":[121.4560308,25.0586173]}},{"type":"Feature","properties":{"id":"d91b3956442610898fc8d538","name":"新莊新樹地下停車場","category":"parking","facilityType":"offstreet-parking","sourceUpdatedAt":"2026-07-20T06:01:00.530Z","carCapacity":105},"geometry":{"type":"Point","coordinates":[121.4316296,25.0010128]}},{"type":"Feature","properties":{"id":"74a2be3751b77afb9e07a2d4","name":"Times新莊榮華路二段停車場","category":"parking","facilityType":"offstreet-parking","sourceUpdatedAt":"2026-07-20T06:01:00.530Z","carCapacity":102},"geometry":{"type":"Point","coordinates":[121.4435238,25.0556244]}},{"type":"Feature","properties":{"id":"5eb9a1e17fead0056b046eb9","name":"新莊丹鳳2站停車場","category":"parking","facilityType":"offstreet-parking","sourceUpdatedAt":"2026-07-20T06:01:00.530Z","carCapacity":45},"geometry":{"type":"Point","coordinates":[121.4135562,25.0254177]}},{"type":"Feature","properties":{"id":"f8e773fcf17fca77dacf77c4","name":"禮頓企業有限公司新莊思源路停車場","category":"parking","facilityType":"offstreet-parking","sourceUpdatedAt":"2026-07-20T06:01:00.530Z","carCapacity":27},"geometry":{"type":"Point","coordinates":[121.4605309,25.0422562]}},{"type":"Feature","properties":{"id":"156facb1d07484d79900529a","name":"昌隆國小附設停車場","category":"parking","facilityType":"offstreet-parking","sourceUpdatedAt":"2026-07-20T06:01:00.530Z","carCapacity":34},"geometry":{"type":"Point","coordinates":[121.4550699,25.0512424]}},{"type":"Feature","properties":{"id":"6e4843d1fad5755c5c2bc742","name":"新北產業園區服務中心停車場","category":"parking","facilityType":"offstreet-parking","sourceUpdatedAt":"2026-07-20T06:01:00.530Z","carCapacity":48},"geometry":{"type":"Point","coordinates":[121.4573461,25.0636988]}},{"type":"Feature","properties":{"id":"4920666c1fff6bf56fad7287","name":"興偉承停車場","category":"parking","facilityType":"offstreet-parking","sourceUpdatedAt":"2026-07-20T06:01:00.530Z","carCapacity":42},"geometry":{"type":"Point","coordinates":[121.4118859,25.0299762]}},{"type":"Feature","properties":{"id":"addde2907ffa77d4a44a24c7","name":"Times新莊永樂街(月租)停車場","category":"parking","facilityType":"offstreet-parking","sourceUpdatedAt":"2026-07-20T06:01:00.530Z","carCapacity":2},"geometry":{"type":"Point","coordinates":[121.4464808,25.0440054]}},{"type":"Feature","properties":{"id":"e2b7df6f479ea6fdbabdaeca","name":"宏達經營管理顧問有限公司思源停車場","category":"parking","facilityType":"offstreet-parking","sourceUpdatedAt":"2026-07-20T06:01:00.530Z","carCapacity":9},"geometry":{"type":"Point","coordinates":[121.461143,25.0516869]}},{"type":"Feature","properties":{"id":"4839d06a666dc7c1128765d0","name":"鼎天餐飲店停車場","category":"parking","facilityType":"offstreet-parking","sourceUpdatedAt":"2026-07-20T06:01:00.530Z","carCapacity":29},"geometry":{"type":"Point","coordinates":[121.4579322,25.0549939]}},{"type":"Feature","properties":{"id":"d13c06cd561f2e53b2d24a65","name":"八德立體停車場","category":"parking","facilityType":"offstreet-parking","sourceUpdatedAt":"2026-07-20T06:01:00.530Z","carCapacity":200},"geometry":{"type":"Point","coordinates":[121.4251251,25.0226757]}},{"type":"Feature","properties":{"id":"3f6af3a781bb277b0db8658d","name":"中誠立體停車場","category":"parking","facilityType":"offstreet-parking","sourceUpdatedAt":"2026-07-20T06:01:00.530Z","carCapacity":200},"geometry":{"type":"Point","coordinates":[121.4516084,25.0478178]}},{"type":"Feature","properties":{"id":"2dcd12e197e667b2ee5785dc","name":"思賢立體停車場","category":"parking","facilityType":"offstreet-parking","sourceUpdatedAt":"2026-07-20T06:01:00.530Z","carCapacity":254},"geometry":{"type":"Point","coordinates":[121.4567118,25.0476668]}}]}
