{"type":"FeatureCollection","features":[{"type":"Feature","properties":{"id":"3754883d6d8874e644d07a4c","name":"新北市立圖書館板橋民生圖書閱覽室","category":"library","facilityType":"public-library","sourceUpdatedAt":"2026-07-21T02:59:00.336Z"},"geometry":{"type":"Point","coordinates":[121.476056,25.013522]}},{"type":"Feature","properties":{"id":"e89ff43b4e1408116b237968","name":"新北市立圖書館板橋浮洲圖書閱覽室","category":"library","facilityType":"public-library","sourceUpdatedAt":"2026-07-21T02:59:00.336Z"},"geometry":{"type":"Point","coordinates":[121.445364,25.000445]}},{"type":"Feature","properties":{"id":"51907ee75ff693d52a3b1776","name":"新北市立圖書館板橋國光圖書閱覽室","category":"library","facilityType":"public-library","sourceUpdatedAt":"2026-07-21T02:59:00.336Z"},"geometry":{"type":"Point","coordinates":[121.453487,25.020288]}},{"type":"Feature","properties":{"id":"5e4ee32be700f2807afd4842","name":"新北市立圖書館板橋萬板親子圖書閱覽室","category":"library","facilityType":"public-library","sourceUpdatedAt":"2026-07-21T02:59:00.336Z"},"geometry":{"type":"Point","coordinates":[121.472261,25.02231]}},{"type":"Feature","properties":{"id":"9ad0b490798a06afdbcd4017","name":"新北市立圖書館","category":"library","facilityType":"public-library","sourceUpdatedAt":"2026-07-21T02:59:00.336Z"},"geometry":{"type":"Point","coordinates":[121.4551,25.0015]}},{"type":"Feature","properties":{"id":"07cb715355528a48a33c1dfd","name":"新北市立圖書館板橋分館","category":"library","facilityType":"public-library","sourceUpdatedAt":"2026-07-21T02:59:00.336Z"},"geometry":{"type":"Point","coordinates":[121.458,25.0107]}},{"type":"Feature","properties":{"id":"9615aaeb3c317eda20db043b","name":"新北市立圖書館板橋四維分館","category":"library","facilityType":"public-library","sourceUpdatedAt":"2026-07-21T02:59:00.336Z"},"geometry":{"type":"Point","coordinates":[121.4636,25.0247]}},{"type":"Feature","properties":{"id":"f89fd8be04e69e3c1935a991","name":"新北市立圖書館板橋忠孝分館","category":"library","facilityType":"public-library","sourceUpdatedAt":"2026-07-21T02:59:00.336Z"},"geometry":{"type":"Point","coordinates":[121.4601,24.9974]}},{"type":"Feature","properties":{"id":"5c3d19541a4cd549702eb1dd","name":"新北市立圖書館板橋溪北分館","category":"library","facilityType":"public-library","sourceUpdatedAt":"2026-07-21T02:59:00.336Z"},"geometry":{"type":"Point","coordinates":[121.4315,24.9902]}},{"type":"Feature","properties":{"id":"ebc4a590507435fa5acdf4b1","name":"新北市立圖書館板橋江子翠分館","category":"library","facilityType":"public-library","sourceUpdatedAt":"2026-07-21T02:59:00.336Z"},"geometry":{"type":"Point","coordinates":[121.472283,25.026021]}}]}
