{"type":"FeatureCollection","features":[{"type":"Feature","properties":{"id":"81f891b5fbe8d157ee92b5bb","name":"遠東百貨停車場","category":"parking","facilityType":"offstreet-parking","sourceUpdatedAt":"2026-07-20T06:01:00.530Z","carCapacity":453},"geometry":{"type":"Point","coordinates":[121.4644919,25.0109252]}},{"type":"Feature","properties":{"id":"b7b653868e6a80132e91363b","name":"遠東資源開發股份有限公司遠東路1號營業所停車場","category":"parking","facilityType":"offstreet-parking","sourceUpdatedAt":"2026-07-20T06:01:00.530Z","carCapacity":75},"geometry":{"type":"Point","coordinates":[121.4571644,24.9986334]}},{"type":"Feature","properties":{"id":"63bf938a21b8e94ff6ebc156","name":"金板神大樓地下停車場","category":"parking","facilityType":"offstreet-parking","sourceUpdatedAt":"2026-07-20T06:01:00.530Z","carCapacity":20},"geometry":{"type":"Point","coordinates":[121.4546073,25.0063739]}},{"type":"Feature","properties":{"id":"d76380a5911f1d6a3c7e0146","name":"板橋環河(南雅西路環河平面停車場)","category":"parking","facilityType":"offstreet-parking","sourceUpdatedAt":"2026-07-20T06:01:00.530Z","carCapacity":22},"geometry":{"type":"Point","coordinates":[121.4513625,25.0130917]}},{"type":"Feature","properties":{"id":"fb8dbee8b92a46f37cd886f7","name":"台65高架橋下停車場","category":"parking","facilityType":"offstreet-parking","sourceUpdatedAt":"2026-07-20T06:01:00.530Z","carCapacity":79},"geometry":{"type":"Point","coordinates":[121.451031,25.009712]}},{"type":"Feature","properties":{"id":"46da9f21558ddf257e4620da","name":"ㄧ0九停車場","category":"parking","facilityType":"offstreet-parking","sourceUpdatedAt":"2026-07-20T06:01:00.530Z","carCapacity":43},"geometry":{"type":"Point","coordinates":[121.434289,24.991516]}},{"type":"Feature","properties":{"id":"80dcc9328ad21ef3b5eb8fa1","name":"大觀國小收費停車場","category":"parking","facilityType":"offstreet-parking","sourceUpdatedAt":"2026-07-20T06:01:00.530Z","carCapacity":27},"geometry":{"type":"Point","coordinates":[121.449837,25.009716]}},{"type":"Feature","properties":{"id":"1b52dad2465efa254ba76d03","name":"板橋果菜批發市場第一停車場","category":"parking","facilityType":"offstreet-parking","sourceUpdatedAt":"2026-07-20T06:01:00.530Z","carCapacity":258},"geometry":{"type":"Point","coordinates":[121.4493561,25.0209839]}},{"type":"Feature","properties":{"id":"08a6edb9f1336289f5f39d3e","name":"六三停車場","category":"parking","facilityType":"offstreet-parking","sourceUpdatedAt":"2026-07-20T06:01:00.530Z","carCapacity":21},"geometry":{"type":"Point","coordinates":[121.4714223,25.0355863]}},{"type":"Feature","properties":{"id":"95c386613f310f71724b5b4f","name":"新北市立大觀國民中學停車場","category":"parking","facilityType":"offstreet-parking","sourceUpdatedAt":"2026-07-20T06:01:00.530Z","carCapacity":30},"geometry":{"type":"Point","coordinates":[121.4485118,25.0111187]}},{"type":"Feature","properties":{"id":"0edb729f75023ac5dd03fedc","name":"Times板橋華江一路停車場","category":"parking","facilityType":"offstreet-parking","sourceUpdatedAt":"2026-07-20T06:01:00.530Z","carCapacity":63},"geometry":{"type":"Point","coordinates":[121.4744547,25.0356038]}},{"type":"Feature","properties":{"id":"da409a2e407709c66cddc377","name":"捷運江子翠站轉乘停車場","category":"parking","facilityType":"offstreet-parking","sourceUpdatedAt":"2026-07-20T06:01:00.530Z","carCapacity":28},"geometry":{"type":"Point","coordinates":[121.4730746,25.0310173]}},{"type":"Feature","properties":{"id":"075ceed2c8153e5dd44c438f","name":"(板橋區)USPACE車位共享平臺停車場","category":"parking","facilityType":"offstreet-parking","sourceUpdatedAt":"2026-07-20T06:01:00.530Z","carCapacity":20},"geometry":{"type":"Point","coordinates":[121.4662436,25.0127632]}},{"type":"Feature","properties":{"id":"ae9c668b5025ef0b22de0e36","name":"叭叭房新板大樓停車場","category":"parking","facilityType":"offstreet-parking","sourceUpdatedAt":"2026-07-20T06:01:00.530Z","carCapacity":44},"geometry":{"type":"Point","coordinates":[121.4638022,25.011153]}},{"type":"Feature","properties":{"id":"82cbc7d9f1214281bd83c6d3","name":"板橋金站停車場","category":"parking","facilityType":"offstreet-parking","sourceUpdatedAt":"2026-07-20T06:01:00.530Z","carCapacity":45},"geometry":{"type":"Point","coordinates":[121.4591228,25.0071229]}},{"type":"Feature","properties":{"id":"b5ef6d7f85e5609529645580","name":"Uspace板橋旗艦停車場","category":"parking","facilityType":"offstreet-parking","sourceUpdatedAt":"2026-07-20T06:01:00.530Z","carCapacity":275},"geometry":{"type":"Point","coordinates":[121.4701217,25.0141125]}},{"type":"Feature","properties":{"id":"7ec31ab91d06c7b708b2a570","name":"便利停車場新巨蛋站","category":"parking","facilityType":"offstreet-parking","sourceUpdatedAt":"2026-07-20T06:01:00.530Z","carCapacity":38},"geometry":{"type":"Point","coordinates":[121.4687381,25.0236596]}},{"type":"Feature","properties":{"id":"1776d29c670de4020b52454d","name":"愛買南雅店收費停車場","category":"parking","facilityType":"offstreet-parking","sourceUpdatedAt":"2026-07-20T06:01:00.530Z","carCapacity":204},"geometry":{"type":"Point","coordinates":[121.4562144,25.002681]}},{"type":"Feature","properties":{"id":"bfeca55ca0ec40d0c5923f98","name":"愛買南雅店路外停車場","category":"parking","facilityType":"offstreet-parking","sourceUpdatedAt":"2026-07-20T06:01:00.530Z","carCapacity":102},"geometry":{"type":"Point","coordinates":[121.4561954,25.0018143]}},{"type":"Feature","properties":{"id":"e4d6ee58ec6ccd15ea041df0","name":"四維公園地下停車場","category":"parking","facilityType":"offstreet-parking","sourceUpdatedAt":"2026-07-20T06:01:00.530Z","carCapacity":314},"geometry":{"type":"Point","coordinates":[121.4640012,25.0255975]}},{"type":"Feature","properties":{"id":"320de1744451ad14db80dc29","name":"台灣聯通府中停車場","category":"parking","facilityType":"offstreet-parking","sourceUpdatedAt":"2026-07-20T06:01:00.530Z","carCapacity":22},"geometry":{"type":"Point","coordinates":[121.4626148,25.0104886]}},{"type":"Feature","properties":{"id":"e83275cee7be2b1720fa05d6","name":"華江三路平面停車場","category":"parking","facilityType":"offstreet-parking","sourceUpdatedAt":"2026-07-20T06:01:00.530Z","carCapacity":14},"geometry":{"type":"Point","coordinates":[121.4736453,25.0359061]}},{"type":"Feature","properties":{"id":"11095ab24ca2d2aef13330ef","name":"大觀段平面停車場","category":"parking","facilityType":"offstreet-parking","sourceUpdatedAt":"2026-07-20T06:01:00.530Z","carCapacity":70},"geometry":{"type":"Point","coordinates":[121.4507293,25.0052075]}},{"type":"Feature","properties":{"id":"6441b1357cddf92f430d2fd7","name":"南雅停車場","category":"parking","facilityType":"offstreet-parking","sourceUpdatedAt":"2026-07-20T06:01:00.530Z","carCapacity":145},"geometry":{"type":"Point","coordinates":[121.4534591,25.0053166]}},{"type":"Feature","properties":{"id":"447fe51d14acacdca18a7c6b","name":"板橋車站地下停車場","category":"parking","facilityType":"offstreet-parking","sourceUpdatedAt":"2026-07-20T06:01:00.530Z","carCapacity":883},"geometry":{"type":"Point","coordinates":[121.4644502,25.0143199]}},{"type":"Feature","properties":{"id":"53b397a1fcaf7e65514cd576","name":"板橋區臺65高架橋下(橋墩編號P93至P94)臨時平面停車場","category":"parking","facilityType":"offstreet-parking","sourceUpdatedAt":"2026-07-20T06:01:00.530Z","carCapacity":68},"geometry":{"type":"Point","coordinates":[121.4467716,25.0189513]}},{"type":"Feature","properties":{"id":"107132563431f809c81dfc7a","name":"馥都飯店停車場","category":"parking","facilityType":"offstreet-parking","sourceUpdatedAt":"2026-07-20T06:01:00.530Z","carCapacity":49},"geometry":{"type":"Point","coordinates":[121.4595952,25.0089451]}},{"type":"Feature","properties":{"id":"e40e8354827249678c87c509","name":"環翠段臨時平面停車場","category":"parking","facilityType":"offstreet-parking","sourceUpdatedAt":"2026-07-20T06:01:00.530Z","carCapacity":429},"geometry":{"type":"Point","coordinates":[121.479378,25.035045]}},{"type":"Feature","properties":{"id":"13cd599ffea6954525e48564","name":"全群停車場","category":"parking","facilityType":"offstreet-parking","sourceUpdatedAt":"2026-07-20T06:01:00.530Z","carCapacity":61},"geometry":{"type":"Point","coordinates":[121.4641354,25.0280888]}},{"type":"Feature","properties":{"id":"0fb6190150fb4b9d7b700461","name":"板橋區江翠段122地號平面停車場","category":"parking","facilityType":"offstreet-parking","sourceUpdatedAt":"2026-07-20T06:01:00.530Z","carCapacity":55},"geometry":{"type":"Point","coordinates":[121.470137,25.0340195]}},{"type":"Feature","properties":{"id":"a3f96d7dba8039d2d8e70665","name":"Times 板橋大觀路二段停車場","category":"parking","facilityType":"offstreet-parking","sourceUpdatedAt":"2026-07-20T06:01:00.530Z","carCapacity":11},"geometry":{"type":"Point","coordinates":[121.441298,25.00232]}},{"type":"Feature","properties":{"id":"b746022fbcb13e9654ad4cc9","name":"板橋台65高架橋下湳仔溝A區停車場","category":"parking","facilityType":"offstreet-parking","sourceUpdatedAt":"2026-07-20T06:01:00.530Z","carCapacity":34},"geometry":{"type":"Point","coordinates":[121.4511132,25.0099462]}},{"type":"Feature","properties":{"id":"eb0274e10b7d612767b2cbea","name":"板橋台65高架橋下湳仔溝B區停車場","category":"parking","facilityType":"offstreet-parking","sourceUpdatedAt":"2026-07-20T06:01:00.530Z","carCapacity":25},"geometry":{"type":"Point","coordinates":[121.4520338,25.0016203]}},{"type":"Feature","properties":{"id":"aa3276889d74e680f075166f","name":"國立臺灣藝術大學停車場","category":"parking","facilityType":"offstreet-parking","sourceUpdatedAt":"2026-07-20T06:01:00.530Z","carCapacity":88},"geometry":{"type":"Point","coordinates":[121.4477381,25.0059478]}},{"type":"Feature","properties":{"id":"83a3a1a8e0e9607a59c98bdd","name":"板橋台65高架橋下湳仔溝C區停車場","category":"parking","facilityType":"offstreet-parking","sourceUpdatedAt":"2026-07-20T06:01:00.530Z","carCapacity":7},"geometry":{"type":"Point","coordinates":[121.4513197,24.999759]}},{"type":"Feature","properties":{"id":"7e2431c2ecb34a289bafef10","name":"板橋區江翠水岸特區停四平面停車場","category":"parking","facilityType":"offstreet-parking","sourceUpdatedAt":"2026-07-20T06:01:00.530Z","carCapacity":56},"geometry":{"type":"Point","coordinates":[121.450816,25.0232546]}},{"type":"Feature","properties":{"id":"c645b5616a101b5c560de517","name":"江翠國小地下停車場","category":"parking","facilityType":"offstreet-parking","sourceUpdatedAt":"2026-07-20T06:01:00.530Z","carCapacity":261},"geometry":{"type":"Point","coordinates":[121.4738406,25.0333487]}},{"type":"Feature","properties":{"id":"bbc2ff39b150f142abece276","name":"嘟嘟房板橋英士站停車場","category":"parking","facilityType":"offstreet-parking","sourceUpdatedAt":"2026-07-20T06:01:00.530Z","carCapacity":32},"geometry":{"type":"Point","coordinates":[121.4601581,25.0257358]}},{"type":"Feature","properties":{"id":"bd1aa015bc19c041d50f94a6","name":"高爾富立體停車場","category":"parking","facilityType":"offstreet-parking","sourceUpdatedAt":"2026-07-20T06:01:00.530Z","carCapacity":858},"geometry":{"type":"Point","coordinates":[121.454204,24.9974742]}},{"type":"Feature","properties":{"id":"46fbdc8113ded2e904339f8c","name":"台灣聯通江子翠停車場","category":"parking","facilityType":"offstreet-parking","sourceUpdatedAt":"2026-07-20T06:01:00.530Z","carCapacity":61},"geometry":{"type":"Point","coordinates":[121.4786621,25.0240704]}},{"type":"Feature","properties":{"id":"690d5b8a49444732d11987c1","name":"亞東第一停車場","category":"parking","facilityType":"offstreet-parking","sourceUpdatedAt":"2026-07-20T06:01:00.530Z","carCapacity":193},"geometry":{"type":"Point","coordinates":[121.4524629,24.9970588]}},{"type":"Feature","properties":{"id":"acd6d35c7c87140c28430e6b","name":"板橋區江翠段190地號平面停車場","category":"parking","facilityType":"offstreet-parking","sourceUpdatedAt":"2026-07-20T06:01:00.530Z","carCapacity":71},"geometry":{"type":"Point","coordinates":[121.4648191,25.032032]}},{"type":"Feature","properties":{"id":"85ece3648d6eef41b36cb4d8","name":"中華電信學院第一停車場","category":"parking","facilityType":"offstreet-parking","sourceUpdatedAt":"2026-07-20T06:01:00.530Z","carCapacity":33},"geometry":{"type":"Point","coordinates":[121.4657505,25.0083753]}},{"type":"Feature","properties":{"id":"acb910d4c34d575f6f2bf5ad","name":"家樂福板橋停車場","category":"parking","facilityType":"offstreet-parking","sourceUpdatedAt":"2026-07-20T06:01:00.530Z","carCapacity":156},"geometry":{"type":"Point","coordinates":[121.47943,25.01772]}},{"type":"Feature","properties":{"id":"7f0abe71d1e40195da20c4c6","name":"鴻達停車場","category":"parking","facilityType":"offstreet-parking","sourceUpdatedAt":"2026-07-20T06:01:00.530Z","carCapacity":43},"geometry":{"type":"Point","coordinates":[121.4585292,25.0297602]}},{"type":"Feature","properties":{"id":"57a1bc5e48c88541883ccfa0","name":"Times板橋華江二路停車場","category":"parking","facilityType":"offstreet-parking","sourceUpdatedAt":"2026-07-20T06:01:00.530Z","carCapacity":18},"geometry":{"type":"Point","coordinates":[121.4756719,25.0351575]}},{"type":"Feature","properties":{"id":"ebd4df48bd42c40c72dbe1f5","name":"民權立體停車場","category":"parking","facilityType":"offstreet-parking","sourceUpdatedAt":"2026-07-20T06:01:00.530Z","carCapacity":180},"geometry":{"type":"Point","coordinates":[121.4604833,25.0119849]}},{"type":"Feature","properties":{"id":"dcb692f6ba9de9af21afdf2e","name":"音樂公園地下停車場","category":"parking","facilityType":"offstreet-parking","sourceUpdatedAt":"2026-07-20T06:01:00.530Z","carCapacity":511},"geometry":{"type":"Point","coordinates":[121.4801293,25.0283206]}},{"type":"Feature","properties":{"id":"61766de25f76fe40841ab9cd","name":"435藝文特區平面停車場","category":"parking","facilityType":"offstreet-parking","sourceUpdatedAt":"2026-07-20T06:01:00.530Z","carCapacity":10},"geometry":{"type":"Point","coordinates":[121.4522405,25.0242434]}},{"type":"Feature","properties":{"id":"ae3d1614ca8c5bcc031640f2","name":"板橋區浮洲橋下平面停車場","category":"parking","facilityType":"offstreet-parking","sourceUpdatedAt":"2026-07-20T06:01:00.530Z","carCapacity":30},"geometry":{"type":"Point","coordinates":[121.4380028,24.9951836]}},{"type":"Feature","properties":{"id":"fc983cf017256fd9a1c70923","name":"板橋區溪洲公園平面停車場","category":"parking","facilityType":"offstreet-parking","sourceUpdatedAt":"2026-07-20T06:01:00.530Z","carCapacity":59},"geometry":{"type":"Point","coordinates":[121.4278111,24.985711]}},{"type":"Feature","properties":{"id":"ad9e2e39561a9fdb39da80b5","name":"板橋區崑崙公園停車場","category":"parking","facilityType":"offstreet-parking","sourceUpdatedAt":"2026-07-20T06:01:00.530Z","carCapacity":59},"geometry":{"type":"Point","coordinates":[121.4293367,24.9928796]}},{"type":"Feature","properties":{"id":"bf9fe3ca97055e1e6778cfa1","name":"三民平面停車場","category":"parking","facilityType":"offstreet-parking","sourceUpdatedAt":"2026-07-20T06:01:00.530Z","carCapacity":19},"geometry":{"type":"Point","coordinates":[121.4794031,25.0206996]}},{"type":"Feature","properties":{"id":"5d1dca579d878811a3c20c42","name":"百揚大樓 MEGA TOWER 停車場","category":"parking","facilityType":"offstreet-parking","sourceUpdatedAt":"2026-07-20T06:01:00.530Z","carCapacity":712},"geometry":{"type":"Point","coordinates":[121.4667685,25.0134911]}},{"type":"Feature","properties":{"id":"19faa3e02541e54f8d15ef12","name":"Times板橋大觀路一段(月租)停車場","category":"parking","facilityType":"offstreet-parking","sourceUpdatedAt":"2026-07-20T06:01:00.530Z","carCapacity":39},"geometry":{"type":"Point","coordinates":[121.44383,25.00616]}},{"type":"Feature","properties":{"id":"24c78338a071bb40b9b35d8f","name":"玫瑰公園平面停車場","category":"parking","facilityType":"offstreet-parking","sourceUpdatedAt":"2026-07-20T06:01:00.530Z","carCapacity":45},"geometry":{"type":"Point","coordinates":[121.455244,25.0258954]}},{"type":"Feature","properties":{"id":"bbca3d04bab8ab452afab585","name":"國光公園平面停車場","category":"parking","facilityType":"offstreet-parking","sourceUpdatedAt":"2026-07-20T06:01:00.530Z","carCapacity":35},"geometry":{"type":"Point","coordinates":[121.4533328,25.0208409]}},{"type":"Feature","properties":{"id":"ab13d821f840fb975816bb3c","name":"廣福公園平面停車場","category":"parking","facilityType":"offstreet-parking","sourceUpdatedAt":"2026-07-20T06:01:00.530Z","carCapacity":41},"geometry":{"type":"Point","coordinates":[121.4636977,24.992]}},{"type":"Feature","properties":{"id":"74783786cc967248c1221708","name":"雙十廣場平面停車場","category":"parking","facilityType":"offstreet-parking","sourceUpdatedAt":"2026-07-20T06:01:00.530Z","carCapacity":70},"geometry":{"type":"Point","coordinates":[121.4713744,25.026942]}},{"type":"Feature","properties":{"id":"77b41b19a3c3aeeda684d0b3","name":"新月停車場","category":"parking","facilityType":"offstreet-parking","sourceUpdatedAt":"2026-07-20T06:01:00.530Z","carCapacity":7},"geometry":{"type":"Point","coordinates":[121.4548734,25.0275035]}},{"type":"Feature","properties":{"id":"a1b8e305d5e717e0315f7e06","name":"Times板橋大觀路一段第2停車場","category":"parking","facilityType":"offstreet-parking","sourceUpdatedAt":"2026-07-20T06:01:00.530Z","carCapacity":16},"geometry":{"type":"Point","coordinates":[121.44506,25.01042]}},{"type":"Feature","properties":{"id":"aa4ee1f2ebcc6b813b04cf0b","name":"板橋國中地下停車場","category":"parking","facilityType":"offstreet-parking","sourceUpdatedAt":"2026-07-20T06:01:00.530Z","carCapacity":100},"geometry":{"type":"Point","coordinates":[121.4540675,25.0239399]}},{"type":"Feature","properties":{"id":"242c56597413d2aea08f7124","name":"Times 板橋長江路二段停車場","category":"parking","facilityType":"offstreet-parking","sourceUpdatedAt":"2026-07-20T06:01:00.530Z","carCapacity":23},"geometry":{"type":"Point","coordinates":[121.47071,25.03391]}},{"type":"Feature","properties":{"id":"daee8be1a96a36a6c223a762","name":"板橋區華德公園平面停車場","category":"parking","facilityType":"offstreet-parking","sourceUpdatedAt":"2026-07-20T06:01:00.530Z","carCapacity":52},"geometry":{"type":"Point","coordinates":[121.4530197,24.9921999]}},{"type":"Feature","properties":{"id":"7660db60aa18a339700c9c0a","name":"板橋翠華停車場","category":"parking","facilityType":"offstreet-parking","sourceUpdatedAt":"2026-07-20T06:01:00.530Z","carCapacity":60},"geometry":{"type":"Point","coordinates":[121.4825892,25.0254074]}},{"type":"Feature","properties":{"id":"30bfdabb6f2c786709aef6fe","name":"新埔國小新埔樓地下停車場(教育局轄管)","category":"parking","facilityType":"offstreet-parking","sourceUpdatedAt":"2026-07-20T06:01:00.530Z","carCapacity":45},"geometry":{"type":"Point","coordinates":[121.462489,25.025626]}},{"type":"Feature","properties":{"id":"07996dcc882fae163de86346","name":"立信帝國花園廣場收費停車場","category":"parking","facilityType":"offstreet-parking","sourceUpdatedAt":"2026-07-20T06:01:00.530Z","carCapacity":290},"geometry":{"type":"Point","coordinates":[121.474324,25.0351022]}},{"type":"Feature","properties":{"id":"2b2db137dc1007b0c52e462c","name":"叭叭房新板傑仕堡A停車場","category":"parking","facilityType":"offstreet-parking","sourceUpdatedAt":"2026-07-20T06:01:00.530Z","carCapacity":67},"geometry":{"type":"Point","coordinates":[121.467597,25.018856]}},{"type":"Feature","properties":{"id":"a6e1cf9eb93388900d1b94b9","name":"叭叭房新板傑仕堡B停車場","category":"parking","facilityType":"offstreet-parking","sourceUpdatedAt":"2026-07-20T06:01:00.530Z","carCapacity":147},"geometry":{"type":"Point","coordinates":[121.4684661,25.0180269]}},{"type":"Feature","properties":{"id":"12526cc27b0b28ad1a3d8387","name":"Times板橋龍山寺文化廣場停車場","category":"parking","facilityType":"offstreet-parking","sourceUpdatedAt":"2026-07-20T06:01:00.530Z","carCapacity":92},"geometry":{"type":"Point","coordinates":[121.4708865,25.027878]}},{"type":"Feature","properties":{"id":"b7aa6f4481f162cd657a179e","name":"板橋區忠孝國中地下停車場","category":"parking","facilityType":"offstreet-parking","sourceUpdatedAt":"2026-07-20T06:01:00.530Z","carCapacity":480},"geometry":{"type":"Point","coordinates":[121.4623078,25.0039107]}},{"type":"Feature","properties":{"id":"129521c873bd41ae635e70c0","name":"華東停車場","category":"parking","facilityType":"offstreet-parking","sourceUpdatedAt":"2026-07-20T06:01:00.530Z","carCapacity":238},"geometry":{"type":"Point","coordinates":[121.4499322,24.9957935]}},{"type":"Feature","properties":{"id":"b9e96a5228b37ea460ee45d2","name":"都匯中心地下停車場","category":"parking","facilityType":"offstreet-parking","sourceUpdatedAt":"2026-07-20T06:01:00.530Z","carCapacity":92},"geometry":{"type":"Point","coordinates":[121.4808107,25.0228898]}},{"type":"Feature","properties":{"id":"0a42b1f784a6396f207260b3","name":"板橋區府中立體停車場","category":"parking","facilityType":"offstreet-parking","sourceUpdatedAt":"2026-07-20T06:01:00.530Z","carCapacity":158},"geometry":{"type":"Point","coordinates":[121.4542075,25.0108125]}},{"type":"Feature","properties":{"id":"9c9f0a668a4c89ed0646d0c9","name":"民生公園地下停車場","category":"parking","facilityType":"offstreet-parking","sourceUpdatedAt":"2026-07-20T06:01:00.530Z","carCapacity":165},"geometry":{"type":"Point","coordinates":[121.4763068,25.013515]}},{"type":"Feature","properties":{"id":"2873b0eff1f176ec42d3e14a","name":"潤智停車場","category":"parking","facilityType":"offstreet-parking","sourceUpdatedAt":"2026-07-20T06:01:00.530Z","carCapacity":143},"geometry":{"type":"Point","coordinates":[121.4327305,24.996007]}},{"type":"Feature","properties":{"id":"e97ad8f9bae6d21a8b146abf","name":"民生花市平面停車場","category":"parking","facilityType":"offstreet-parking","sourceUpdatedAt":"2026-07-20T06:01:00.530Z","carCapacity":107},"geometry":{"type":"Point","coordinates":[121.4690205,25.0215732]}},{"type":"Feature","properties":{"id":"df67a63a32485846a2ac5cb1","name":"大漢暨長江機車平面停車場","category":"parking","facilityType":"offstreet-parking","sourceUpdatedAt":"2026-07-20T06:01:00.530Z","carCapacity":339},"geometry":{"type":"Point","coordinates":[121.4661307,25.0261686]}},{"type":"Feature","properties":{"id":"081e8434b968d2603c4038cd","name":"第一運動場地下及海山路平面停車場","category":"parking","facilityType":"offstreet-parking","sourceUpdatedAt":"2026-07-20T06:01:00.530Z","carCapacity":79},"geometry":{"type":"Point","coordinates":[121.4699012,25.0108495]}},{"type":"Feature","properties":{"id":"ca1dfa124d76d633cef1e7bc","name":"民治第二停車場","category":"parking","facilityType":"offstreet-parking","sourceUpdatedAt":"2026-07-20T06:01:00.530Z","carCapacity":40},"geometry":{"type":"Point","coordinates":[121.4802417,25.0322538]}},{"type":"Feature","properties":{"id":"f394338fc1dc382c180382b6","name":"市立殯儀館停車場","category":"parking","facilityType":"offstreet-parking","sourceUpdatedAt":"2026-07-20T06:01:00.530Z","carCapacity":72},"geometry":{"type":"Point","coordinates":[121.456604,25.0284642]}},{"type":"Feature","properties":{"id":"f086814a8f7eae44f3b68893","name":"大庭段平面停車場","category":"parking","facilityType":"offstreet-parking","sourceUpdatedAt":"2026-07-20T06:01:00.530Z","carCapacity":43},"geometry":{"type":"Point","coordinates":[121.459254,25.0178931]}},{"type":"Feature","properties":{"id":"28bd550e4b29526e24b53d16","name":"萬板一平面停車場","category":"parking","facilityType":"offstreet-parking","sourceUpdatedAt":"2026-07-20T06:01:00.530Z","carCapacity":185},"geometry":{"type":"Point","coordinates":[121.4814335,25.028115]}},{"type":"Feature","properties":{"id":"219faf8ec6bc872c7c0026b9","name":"板橋民治文新平面停車場","category":"parking","facilityType":"offstreet-parking","sourceUpdatedAt":"2026-07-20T06:01:00.530Z","carCapacity":24},"geometry":{"type":"Point","coordinates":[121.4808307,25.0341388]}},{"type":"Feature","properties":{"id":"4075fa6245c3962ba9344cd0","name":"江翠停五平面停車場","category":"parking","facilityType":"offstreet-parking","sourceUpdatedAt":"2026-07-20T06:01:00.530Z","carCapacity":392},"geometry":{"type":"Point","coordinates":[121.4558691,25.0280061]}},{"type":"Feature","properties":{"id":"cfcb71af2c76e86981182e8d","name":"市民廣場地下停車場","category":"parking","facilityType":"offstreet-parking","sourceUpdatedAt":"2026-07-20T06:01:00.530Z","carCapacity":841},"geometry":{"type":"Point","coordinates":[121.4648087,25.0134882]}},{"type":"Feature","properties":{"id":"03c3896040f5f8579b149b85","name":"Times板橋篤行路三段第2停車場","category":"parking","facilityType":"offstreet-parking","sourceUpdatedAt":"2026-07-20T06:01:00.530Z","carCapacity":14},"geometry":{"type":"Point","coordinates":[121.4283414,24.9858359]}},{"type":"Feature","properties":{"id":"335929879b84dd3890363362","name":"莊敬立體停車場","category":"parking","facilityType":"offstreet-parking","sourceUpdatedAt":"2026-07-20T06:01:00.530Z","carCapacity":280},"geometry":{"type":"Point","coordinates":[121.4739122,25.0285274]}},{"type":"Feature","properties":{"id":"31184226556e5d7a00dba9ae","name":"板橋黃石市場停車場","category":"parking","facilityType":"offstreet-parking","sourceUpdatedAt":"2026-07-20T06:01:00.530Z","carCapacity":48},"geometry":{"type":"Point","coordinates":[121.457139,25.0107881]}},{"type":"Feature","properties":{"id":"c884230451664caf854a7dd8","name":"Times板橋文化路二段停車場","category":"parking","facilityType":"offstreet-parking","sourceUpdatedAt":"2026-07-20T06:01:00.530Z","carCapacity":20},"geometry":{"type":"Point","coordinates":[121.4702865,25.0267026]}},{"type":"Feature","properties":{"id":"27d63a83ea8390cc7e4c6cfa","name":"板橋區成祥萬板平面停車場","category":"parking","facilityType":"offstreet-parking","sourceUpdatedAt":"2026-07-20T06:01:00.530Z","carCapacity":29},"geometry":{"type":"Point","coordinates":[121.4815083,25.02697]}},{"type":"Feature","properties":{"id":"9cd0ee699cbf1656e3f5253f","name":"客萊停板橋環翠場停車場","category":"parking","facilityType":"offstreet-parking","sourceUpdatedAt":"2026-07-20T06:01:00.530Z","carCapacity":181},"geometry":{"type":"Point","coordinates":[121.4817227,25.0318861]}},{"type":"Feature","properties":{"id":"45f45812bb7975a843848f3f","name":"華江區停車場","category":"parking","facilityType":"offstreet-parking","sourceUpdatedAt":"2026-07-20T06:01:00.530Z","carCapacity":356},"geometry":{"type":"Point","coordinates":[121.4818537,25.0347268]}},{"type":"Feature","properties":{"id":"3f384d88d6ac3d16d26cd0d4","name":"領袖天下社區停車場","category":"parking","facilityType":"offstreet-parking","sourceUpdatedAt":"2026-07-20T06:01:00.530Z","carCapacity":307},"geometry":{"type":"Point","coordinates":[121.4559285,24.996344]}},{"type":"Feature","properties":{"id":"c48b2c2fba87c75b082155f3","name":"江翠二平面停車場","category":"parking","facilityType":"offstreet-parking","sourceUpdatedAt":"2026-07-20T06:01:00.530Z","carCapacity":47},"geometry":{"type":"Point","coordinates":[121.4670372,25.0342279]}},{"type":"Feature","properties":{"id":"abea9c6d8d27420215919c09","name":"板橋龍興街停車場","category":"parking","facilityType":"offstreet-parking","sourceUpdatedAt":"2026-07-20T06:01:00.530Z","carCapacity":26},"geometry":{"type":"Point","coordinates":[121.4430926,25.0029012]}}]}
