{"type":"FeatureCollection","features":[{"type":"Feature","properties":{"id":"04a2eb87756d24a3794b3d97","name":"市立石碇國小","category":"school","sourceUpdatedAt":"2026-07-21T02:58:41.233Z","facilityType":"school-campus","schoolLevels":["elementary"],"officialCodes":["014677"]},"geometry":{"type":"Point","coordinates":[121.6589555,24.9902632]}},{"type":"Feature","properties":{"id":"787a1ad42fbd8b6544333968","name":"市立和平國小","category":"school","sourceUpdatedAt":"2026-07-21T02:58:41.233Z","facilityType":"school-campus","schoolLevels":["elementary"],"officialCodes":["014678"]},"geometry":{"type":"Point","coordinates":[121.6417235,25.0116624]}},{"type":"Feature","properties":{"id":"aeabb0da93ffe19e4428c831","name":"市立永定國小","category":"school","sourceUpdatedAt":"2026-07-21T02:58:41.233Z","facilityType":"school-campus","schoolLevels":["elementary"],"officialCodes":["014679"]},"geometry":{"type":"Point","coordinates":[121.6880069,25.0077955]}},{"type":"Feature","properties":{"id":"22dbe571b753e1569e0305ce","name":"市立雲海國小","category":"school","sourceUpdatedAt":"2026-07-21T02:58:41.233Z","facilityType":"school-campus","schoolLevels":["elementary"],"officialCodes":["014680"]},"geometry":{"type":"Point","coordinates":[121.6371919,24.9531294]}},{"type":"Feature","properties":{"id":"30e214f349e7ee0dc87f0fee","name":"市立石碇高中","category":"school","sourceUpdatedAt":"2026-07-21T02:58:41.233Z","facilityType":"school-campus","schoolLevels":["senior"],"officialCodes":["14348"]},"geometry":{"type":"Point","coordinates":[121.6425964,25.0127432]}}]}
