{"type":"FeatureCollection","features":[{"type":"Feature","properties":{"id":"c43ac8bb06a1a5ec44558626","name":"樹林山佳平面停車場","category":"parking","facilityType":"offstreet-parking","sourceUpdatedAt":"2026-07-21T02:58:29.534Z","carCapacity":51},"geometry":{"type":"Point","coordinates":[121.39344,24.96916]}},{"type":"Feature","properties":{"id":"e331916cf5ae39036db95515","name":"佳記停車場","category":"parking","facilityType":"offstreet-parking","sourceUpdatedAt":"2026-07-21T02:58:29.534Z","carCapacity":35},"geometry":{"type":"Point","coordinates":[121.4145752,25.0042925]}},{"type":"Feature","properties":{"id":"5ca8630018cd2de33b2bf728","name":"樹林國民運動中心停車場","category":"parking","facilityType":"offstreet-parking","sourceUpdatedAt":"2026-07-21T02:58:29.534Z","carCapacity":86},"geometry":{"type":"Point","coordinates":[121.4227978,25.0042242]}},{"type":"Feature","properties":{"id":"a0e2deb11e38606a280080bd","name":"家樂福北大停車場","category":"parking","facilityType":"offstreet-parking","sourceUpdatedAt":"2026-07-21T02:58:29.534Z","carCapacity":172},"geometry":{"type":"Point","coordinates":[121.3798991,24.9474229]}},{"type":"Feature","properties":{"id":"9bcc5b824e1136f7dcf62a42","name":"金英堡收費停車場","category":"parking","facilityType":"offstreet-parking","sourceUpdatedAt":"2026-07-21T02:58:29.534Z","carCapacity":29},"geometry":{"type":"Point","coordinates":[121.423509,25.0114177]}},{"type":"Feature","properties":{"id":"0b196ee8c1818292d04d640e","name":"Times樹林學林路停車場","category":"parking","facilityType":"offstreet-parking","sourceUpdatedAt":"2026-07-21T02:58:29.534Z","carCapacity":29},"geometry":{"type":"Point","coordinates":[121.3783509,24.9492262]}},{"type":"Feature","properties":{"id":"5b87864a7e6610778038e04b","name":"圳福收費停車場","category":"parking","facilityType":"offstreet-parking","sourceUpdatedAt":"2026-07-21T02:58:29.534Z","carCapacity":61},"geometry":{"type":"Point","coordinates":[121.4296196,24.9981738]}},{"type":"Feature","properties":{"id":"2c3727963a69e0dcba76bf77","name":"羊咩咩停車場","category":"parking","facilityType":"offstreet-parking","sourceUpdatedAt":"2026-07-21T02:58:29.534Z","carCapacity":200},"geometry":{"type":"Point","coordinates":[121.4214026,25.0076137]}},{"type":"Feature","properties":{"id":"d2520ef5c410b4118c565c0f","name":"樹林國小慶福樓地下室及家長接送區停車場","category":"parking","facilityType":"offstreet-parking","sourceUpdatedAt":"2026-07-21T02:58:29.534Z","carCapacity":33},"geometry":{"type":"Point","coordinates":[121.4175811,24.9893694]}},{"type":"Feature","properties":{"id":"cfc6c97fdba1f09e7750ea84","name":"大同國民小學活動中心地下停車場","category":"parking","facilityType":"offstreet-parking","sourceUpdatedAt":"2026-07-21T02:58:29.534Z","carCapacity":24},"geometry":{"type":"Point","coordinates":[121.4174552,24.9814249]}},{"type":"Feature","properties":{"id":"79eb7c1c0aa454709041e607","name":"Times樹林佳園路三段停車場","category":"parking","facilityType":"offstreet-parking","sourceUpdatedAt":"2026-07-21T02:58:29.534Z","carCapacity":103},"geometry":{"type":"Point","coordinates":[121.3850498,24.9485103]}},{"type":"Feature","properties":{"id":"093db825b221ff406202b7b0","name":"秋煌停車場","category":"parking","facilityType":"offstreet-parking","sourceUpdatedAt":"2026-07-21T02:58:29.534Z","carCapacity":12},"geometry":{"type":"Point","coordinates":[121.41003,24.97547]}},{"type":"Feature","properties":{"id":"415ce6790181bc53e8c74bd8","name":"樹林車站前站A區停車場","category":"parking","facilityType":"offstreet-parking","sourceUpdatedAt":"2026-07-21T02:58:29.534Z","carCapacity":56},"geometry":{"type":"Point","coordinates":[121.4251291,24.9916042]}},{"type":"Feature","properties":{"id":"b99826192694e23568efb679","name":"祭祀公業簡萬寧停車場","category":"parking","facilityType":"offstreet-parking","sourceUpdatedAt":"2026-07-21T02:58:29.534Z","carCapacity":6},"geometry":{"type":"Point","coordinates":[121.4128528,24.9839657]}},{"type":"Feature","properties":{"id":"b7316ee92d8a2a1edfb777eb","name":"樹林中山停車場","category":"parking","facilityType":"offstreet-parking","sourceUpdatedAt":"2026-07-21T02:58:29.534Z","carCapacity":50},"geometry":{"type":"Point","coordinates":[121.4073865,24.9766101]}},{"type":"Feature","properties":{"id":"011319e5fa6666118da9f8e6","name":"樹林秀泰廣場停車場","category":"parking","facilityType":"offstreet-parking","sourceUpdatedAt":"2026-07-21T02:58:29.534Z","carCapacity":428},"geometry":{"type":"Point","coordinates":[121.42845,24.995533]}},{"type":"Feature","properties":{"id":"dd27e311cb92a24ed4369c7c","name":"八德停車場","category":"parking","facilityType":"offstreet-parking","sourceUpdatedAt":"2026-07-21T02:58:29.534Z","carCapacity":64},"geometry":{"type":"Point","coordinates":[121.4197281,24.9842354]}},{"type":"Feature","properties":{"id":"40b5b629198b54814e9de6a5","name":"昇順停車場","category":"parking","facilityType":"offstreet-parking","sourceUpdatedAt":"2026-07-21T02:58:29.534Z","carCapacity":50},"geometry":{"type":"Point","coordinates":[121.4154412,24.9789839]}},{"type":"Feature","properties":{"id":"139ce79499c6c0f65c57a914","name":"國凱停車場","category":"parking","facilityType":"offstreet-parking","sourceUpdatedAt":"2026-07-21T02:58:29.534Z","carCapacity":86},"geometry":{"type":"Point","coordinates":[121.4191189,24.978087]}},{"type":"Feature","properties":{"id":"7f2a9a89c860df7ed92586cf","name":"Times樹林學林路第2停車場","category":"parking","facilityType":"offstreet-parking","sourceUpdatedAt":"2026-07-21T02:58:29.534Z","carCapacity":60},"geometry":{"type":"Point","coordinates":[121.3802219,24.9496747]}},{"type":"Feature","properties":{"id":"41cfed9f166ac13ef41e3994","name":"俊英街停車場","category":"parking","facilityType":"offstreet-parking","sourceUpdatedAt":"2026-07-21T02:58:29.534Z","carCapacity":105},"geometry":{"type":"Point","coordinates":[121.42159,25.01018]}},{"type":"Feature","properties":{"id":"e010a0869cdaceaec0e8f03b","name":"金樹林停車場","category":"parking","facilityType":"offstreet-parking","sourceUpdatedAt":"2026-07-21T02:58:29.534Z","carCapacity":17},"geometry":{"type":"Point","coordinates":[121.4149961,24.9800514]}},{"type":"Feature","properties":{"id":"7852e7881120a577de28257c","name":"臺北大學特定區停一平面停車場","category":"parking","facilityType":"offstreet-parking","sourceUpdatedAt":"2026-07-21T02:58:29.534Z","carCapacity":116},"geometry":{"type":"Point","coordinates":[121.3787172,24.94535]}},{"type":"Feature","properties":{"id":"e40a91306d5e2b7d4ace05be","name":"樹林區第七立體停車場","category":"parking","facilityType":"offstreet-parking","sourceUpdatedAt":"2026-07-21T02:58:29.534Z","carCapacity":50},"geometry":{"type":"Point","coordinates":[121.4235223,24.9901426]}},{"type":"Feature","properties":{"id":"497b866e5d08896626ff55b0","name":"樹林區第六平面停車場","category":"parking","facilityType":"offstreet-parking","sourceUpdatedAt":"2026-07-21T02:58:29.534Z","carCapacity":42},"geometry":{"type":"Point","coordinates":[121.424285,24.9973314]}},{"type":"Feature","properties":{"id":"c56e1a82b27f9c5711acdf7a","name":"樹林區第十三平面停車場","category":"parking","facilityType":"offstreet-parking","sourceUpdatedAt":"2026-07-21T02:58:29.534Z","carCapacity":16},"geometry":{"type":"Point","coordinates":[121.4208063,24.9867106]}},{"type":"Feature","properties":{"id":"ddbc140659146ff240315c00","name":"Times樹林八德街停車場","category":"parking","facilityType":"offstreet-parking","sourceUpdatedAt":"2026-07-21T02:58:29.534Z","carCapacity":29},"geometry":{"type":"Point","coordinates":[121.40113,24.97047]}},{"type":"Feature","properties":{"id":"ba02913c38e2fd1f22dab45d","name":"學勤停車場","category":"parking","facilityType":"offstreet-parking","sourceUpdatedAt":"2026-07-21T02:58:29.534Z","carCapacity":47},"geometry":{"type":"Point","coordinates":[121.3809132,24.9484099]}},{"type":"Feature","properties":{"id":"be63e932ad4b40b37c3602f1","name":"三多國民中學停車場","category":"parking","facilityType":"offstreet-parking","sourceUpdatedAt":"2026-07-21T02:58:29.534Z","carCapacity":42},"geometry":{"type":"Point","coordinates":[121.4146886,25.0056103]}},{"type":"Feature","properties":{"id":"ff91aa008cb198ff0c0374f7","name":"Times樹林惠生保安婦幼停車場","category":"parking","facilityType":"offstreet-parking","sourceUpdatedAt":"2026-07-21T02:58:29.534Z","carCapacity":62},"geometry":{"type":"Point","coordinates":[121.4218614,24.9957494]}},{"type":"Feature","properties":{"id":"1b578c2c5b0aabe60260e942","name":"城市車旅樹林福順停車場","category":"parking","facilityType":"offstreet-parking","sourceUpdatedAt":"2026-07-21T02:58:29.534Z","carCapacity":11},"geometry":{"type":"Point","coordinates":[121.4150764,24.9797857]}},{"type":"Feature","properties":{"id":"94f07d4fe7b99b63433d7511","name":"圳民停車場","category":"parking","facilityType":"offstreet-parking","sourceUpdatedAt":"2026-07-21T02:58:29.534Z","carCapacity":67},"geometry":{"type":"Point","coordinates":[121.4234731,25.0087508]}},{"type":"Feature","properties":{"id":"c8beffb792d1f3f19ecb71fb","name":"Times樹林車站前停車場","category":"parking","facilityType":"offstreet-parking","sourceUpdatedAt":"2026-07-21T02:58:29.534Z","carCapacity":37},"geometry":{"type":"Point","coordinates":[121.4257113,24.9918201]}},{"type":"Feature","properties":{"id":"0b78026886b02e787e61c370","name":"樹林區文林國民小學停車場","category":"parking","facilityType":"offstreet-parking","sourceUpdatedAt":"2026-07-21T02:58:29.534Z","carCapacity":41},"geometry":{"type":"Point","coordinates":[121.4245235,24.9975519]}},{"type":"Feature","properties":{"id":"e5b64ac2a6b52ec72f600d52","name":"Times樹林鎮前街(月租)停車場","category":"parking","facilityType":"offstreet-parking","sourceUpdatedAt":"2026-07-21T02:58:29.534Z","carCapacity":9},"geometry":{"type":"Point","coordinates":[121.4180276,24.9849146]}}]}
