{"type":"FeatureCollection","features":[{"type":"Feature","properties":{"id":"e72cfa13c9553fea131ebb44","name":"台灣省漁會三重示範魚市場停車場","category":"parking","facilityType":"offstreet-parking","sourceUpdatedAt":"2026-07-20T06:01:00.530Z","carCapacity":110},"geometry":{"type":"Point","coordinates":[121.488401,25.0665205]}},{"type":"Feature","properties":{"id":"2d7b3fde6413531c6a833c2b","name":"新北市果菜運銷股份有限公司停車場","category":"parking","facilityType":"offstreet-parking","sourceUpdatedAt":"2026-07-20T06:01:00.530Z","carCapacity":73},"geometry":{"type":"Point","coordinates":[121.4870005,25.0645479]}},{"type":"Feature","properties":{"id":"be8f2aef4162904c10322d6d","name":"過圳街停車場","category":"parking","facilityType":"offstreet-parking","sourceUpdatedAt":"2026-07-20T06:01:00.530Z","carCapacity":88},"geometry":{"type":"Point","coordinates":[121.4883763,25.0593051]}},{"type":"Feature","properties":{"id":"5f420d37e6420f0ab33ea4fc","name":"重新橋下活動中心周邊","category":"parking","facilityType":"offstreet-parking","sourceUpdatedAt":"2026-07-20T06:01:00.530Z","carCapacity":58},"geometry":{"type":"Point","coordinates":[121.478784,25.048742]}},{"type":"Feature","properties":{"id":"bb8759903c685782ec5f1e3c","name":"水岸長堤停車場","category":"parking","facilityType":"offstreet-parking","sourceUpdatedAt":"2026-07-20T06:01:00.530Z","carCapacity":30},"geometry":{"type":"Point","coordinates":[121.5029252,25.073374]}},{"type":"Feature","properties":{"id":"cf2b260417f5ad4fe6e92715","name":"家福蘆洲店停車場","category":"parking","facilityType":"offstreet-parking","sourceUpdatedAt":"2026-07-20T06:01:00.530Z","carCapacity":150},"geometry":{"type":"Point","coordinates":[121.4867747,25.0878998]}},{"type":"Feature","properties":{"id":"b30d79a9ac4c7439c67fd4a1","name":"I世紀社區停車場","category":"parking","facilityType":"offstreet-parking","sourceUpdatedAt":"2026-07-20T06:01:00.530Z","carCapacity":20},"geometry":{"type":"Point","coordinates":[121.4855904,25.062607]}},{"type":"Feature","properties":{"id":"863d1811ff5a27c96f8046c2","name":"元信停車場","category":"parking","facilityType":"offstreet-parking","sourceUpdatedAt":"2026-07-20T06:01:00.530Z","carCapacity":46},"geometry":{"type":"Point","coordinates":[121.496613,25.0800218]}},{"type":"Feature","properties":{"id":"a6e7260bd79963bec36eb370","name":"元亨股份有限公司中山大樓場停車場","category":"parking","facilityType":"offstreet-parking","sourceUpdatedAt":"2026-07-20T06:01:00.530Z","carCapacity":32},"geometry":{"type":"Point","coordinates":[121.4696987,25.0617734]}},{"type":"Feature","properties":{"id":"fb35009fb4ff558540fbd3a8","name":"永福國小未來樓收費停車場","category":"parking","facilityType":"offstreet-parking","sourceUpdatedAt":"2026-07-20T06:01:00.530Z","carCapacity":31},"geometry":{"type":"Point","coordinates":[121.4798119,25.0766256]}},{"type":"Feature","properties":{"id":"a0d1e9765963fea72b9d119d","name":"集美國民小學地下停車場","category":"parking","facilityType":"offstreet-parking","sourceUpdatedAt":"2026-07-20T06:01:00.530Z","carCapacity":93},"geometry":{"type":"Point","coordinates":[121.488196,25.0560666]}},{"type":"Feature","properties":{"id":"418213372f8f02eab418a699","name":"宏達經營管理顧問有限公司仁義二停車場","category":"parking","facilityType":"offstreet-parking","sourceUpdatedAt":"2026-07-20T06:01:00.530Z","carCapacity":77},"geometry":{"type":"Point","coordinates":[121.4989324,25.079717]}},{"type":"Feature","properties":{"id":"c28e97d430c55699c6a967fc","name":"台灣聯通三重神農停車場","category":"parking","facilityType":"offstreet-parking","sourceUpdatedAt":"2026-07-20T06:01:00.530Z","carCapacity":28},"geometry":{"type":"Point","coordinates":[121.4753571,25.0509288]}},{"type":"Feature","properties":{"id":"72dd417072d0ac38e1c07b84","name":"越鑫三重場停車場","category":"parking","facilityType":"offstreet-parking","sourceUpdatedAt":"2026-07-20T06:01:00.530Z","carCapacity":47},"geometry":{"type":"Point","coordinates":[121.4975635,25.0601117]}},{"type":"Feature","properties":{"id":"8b65f058ff8f4da341c1ab94","name":"台灣聯通介壽停車場","category":"parking","facilityType":"offstreet-parking","sourceUpdatedAt":"2026-07-20T06:01:00.530Z","carCapacity":6},"geometry":{"type":"Point","coordinates":[121.494788,25.071645]}},{"type":"Feature","properties":{"id":"ba81e0e5925c5dbfdb88dff9","name":"二重公園地下停車場","category":"parking","facilityType":"offstreet-parking","sourceUpdatedAt":"2026-07-20T06:01:00.530Z","carCapacity":206},"geometry":{"type":"Point","coordinates":[121.4756436,25.0663705]}},{"type":"Feature","properties":{"id":"44f1b9c15d4859d20743e1c5","name":"太平洋三站停車場","category":"parking","facilityType":"offstreet-parking","sourceUpdatedAt":"2026-07-20T06:01:00.530Z","carCapacity":352},"geometry":{"type":"Point","coordinates":[121.4685313,25.0459173]}},{"type":"Feature","properties":{"id":"512f299337a26524bf011895","name":"光武停車場","category":"parking","facilityType":"offstreet-parking","sourceUpdatedAt":"2026-07-20T06:01:00.530Z","carCapacity":48},"geometry":{"type":"Point","coordinates":[121.4837916,25.0770397]}},{"type":"Feature","properties":{"id":"5dd991e995d6038b084697fa","name":"RightHereParking瑞誼停車場","category":"parking","facilityType":"offstreet-parking","sourceUpdatedAt":"2026-07-20T06:01:00.530Z","carCapacity":91},"geometry":{"type":"Point","coordinates":[121.4829709,25.0555872]}},{"type":"Feature","properties":{"id":"18d81aa5297922d981edfa3c","name":"Times三重捷運路第5停車場","category":"parking","facilityType":"offstreet-parking","sourceUpdatedAt":"2026-07-20T06:01:00.530Z","carCapacity":40},"geometry":{"type":"Point","coordinates":[121.483946,25.0547913]}},{"type":"Feature","properties":{"id":"32b97a2f0ceabb9ff473c502","name":"中興北停車場","category":"parking","facilityType":"offstreet-parking","sourceUpdatedAt":"2026-07-20T06:01:00.530Z","carCapacity":131},"geometry":{"type":"Point","coordinates":[121.4694724,25.0479006]}},{"type":"Feature","properties":{"id":"c4c01209444253f5044fe2f2","name":"五谷王三停車場","category":"parking","facilityType":"offstreet-parking","sourceUpdatedAt":"2026-07-20T06:01:00.530Z","carCapacity":59},"geometry":{"type":"Point","coordinates":[121.4765937,25.0539421]}},{"type":"Feature","properties":{"id":"eda25eef528b37b43093df7d","name":"俥萊有限公司大榮場停車場","category":"parking","facilityType":"offstreet-parking","sourceUpdatedAt":"2026-07-20T06:01:00.530Z","carCapacity":2},"geometry":{"type":"Point","coordinates":[121.4993417,25.0635509]}},{"type":"Feature","properties":{"id":"277bcc60dd134d5f2def231e","name":"社教館地下停車場","category":"parking","facilityType":"offstreet-parking","sourceUpdatedAt":"2026-07-20T06:01:00.530Z","carCapacity":38},"geometry":{"type":"Point","coordinates":[121.4894162,25.0551146]}},{"type":"Feature","properties":{"id":"304814e939d334ab8e39d77f","name":"行政大樓附設停車場","category":"parking","facilityType":"offstreet-parking","sourceUpdatedAt":"2026-07-20T06:01:00.530Z","carCapacity":79},"geometry":{"type":"Point","coordinates":[121.4887396,25.0606962]}},{"type":"Feature","properties":{"id":"87cc5514cfbc88847c1debf6","name":"綜合體育館地下停車場","category":"parking","facilityType":"offstreet-parking","sourceUpdatedAt":"2026-07-20T06:01:00.530Z","carCapacity":290},"geometry":{"type":"Point","coordinates":[121.4913861,25.0619514]}},{"type":"Feature","properties":{"id":"f6f6a78513db58c7f973ae05","name":"光復平面停車場","category":"parking","facilityType":"offstreet-parking","sourceUpdatedAt":"2026-07-20T06:01:00.530Z","carCapacity":361},"geometry":{"type":"Point","coordinates":[121.4749245,25.0562044]}},{"type":"Feature","properties":{"id":"9872ee68ade4673f400806a3","name":"Times三重三信路停車場","category":"parking","facilityType":"offstreet-parking","sourceUpdatedAt":"2026-07-20T06:01:00.530Z","carCapacity":22},"geometry":{"type":"Point","coordinates":[121.48967,25.0877819]}},{"type":"Feature","properties":{"id":"075b7cdb78daa957dc0f1cde","name":"三重區力行地下停車場","category":"parking","facilityType":"offstreet-parking","sourceUpdatedAt":"2026-07-20T06:01:00.530Z","carCapacity":216},"geometry":{"type":"Point","coordinates":[121.4829256,25.0779093]}},{"type":"Feature","properties":{"id":"2874b1c9accebe44e5ecfa13","name":"三重力行停車場","category":"parking","facilityType":"offstreet-parking","sourceUpdatedAt":"2026-07-20T06:01:00.530Z","carCapacity":82},"geometry":{"type":"Point","coordinates":[121.4850879,25.0684182]}},{"type":"Feature","properties":{"id":"250758f9784e20bc60f0eb1f","name":"三重區光榮國小地下停車場","category":"parking","facilityType":"offstreet-parking","sourceUpdatedAt":"2026-07-20T06:01:00.530Z","carCapacity":572},"geometry":{"type":"Point","coordinates":[121.5005231,25.0723222]}},{"type":"Feature","properties":{"id":"c392644acf870781eb7d72f0","name":"三重區重新立體停車場","category":"parking","facilityType":"offstreet-parking","sourceUpdatedAt":"2026-07-20T06:01:00.530Z","carCapacity":322},"geometry":{"type":"Point","coordinates":[121.4899541,25.0582682]}},{"type":"Feature","properties":{"id":"1e3ff2b21346453c7d256d13","name":"三重區永福國小地下停車場","category":"parking","facilityType":"offstreet-parking","sourceUpdatedAt":"2026-07-20T06:01:00.530Z","carCapacity":210},"geometry":{"type":"Point","coordinates":[121.4796863,25.0774639]}},{"type":"Feature","properties":{"id":"007af05609838b7c2d582d60","name":"富鴻達國際事業有限公司愛買三重營業處停車場","category":"parking","facilityType":"offstreet-parking","sourceUpdatedAt":"2026-07-20T06:01:00.530Z","carCapacity":291},"geometry":{"type":"Point","coordinates":[121.4760189,25.0713952]}},{"type":"Feature","properties":{"id":"c1aa818bace37ba3019fbc0e","name":"Times三重忠孝路三段停車場","category":"parking","facilityType":"offstreet-parking","sourceUpdatedAt":"2026-07-20T06:01:00.530Z","carCapacity":164},"geometry":{"type":"Point","coordinates":[121.481182,25.0634501]}},{"type":"Feature","properties":{"id":"454995793b710bb069f5aab8","name":"博客停車場開發股份有限公司迪卡儂三重場停車場","category":"parking","facilityType":"offstreet-parking","sourceUpdatedAt":"2026-07-20T06:01:00.530Z","carCapacity":313},"geometry":{"type":"Point","coordinates":[121.4893948,25.0551978]}},{"type":"Feature","properties":{"id":"44ebf4633d3998f57b46e567","name":"三重區中山高架橋下(中山段)平面停車場","category":"parking","facilityType":"offstreet-parking","sourceUpdatedAt":"2026-07-20T06:01:00.530Z","carCapacity":144},"geometry":{"type":"Point","coordinates":[121.4829793,25.0615186]}},{"type":"Feature","properties":{"id":"d81a8e3b0ab4eb8566175125","name":"三重區環河快速高架橋下平面停車場","category":"parking","facilityType":"offstreet-parking","sourceUpdatedAt":"2026-07-20T06:01:00.530Z","carCapacity":128},"geometry":{"type":"Point","coordinates":[121.5042235,25.0696816]}},{"type":"Feature","properties":{"id":"007a4a2e1923424b24574c42","name":"家樂福重新店停車場","category":"parking","facilityType":"offstreet-parking","sourceUpdatedAt":"2026-07-20T06:01:00.530Z","carCapacity":470},"geometry":{"type":"Point","coordinates":[121.4671946,25.0430975]}},{"type":"Feature","properties":{"id":"d4300573a58d9abd17b904ba","name":"濟安三重B區停車場","category":"parking","facilityType":"offstreet-parking","sourceUpdatedAt":"2026-07-20T06:01:00.530Z","carCapacity":48},"geometry":{"type":"Point","coordinates":[121.4765149,25.0735405]}},{"type":"Feature","properties":{"id":"34230b8128c84423aae49a0b","name":"苡富中興場停車場","category":"parking","facilityType":"offstreet-parking","sourceUpdatedAt":"2026-07-20T06:01:00.530Z","carCapacity":20},"geometry":{"type":"Point","coordinates":[121.4891029,25.0510846]}},{"type":"Feature","properties":{"id":"9c37d355a4a744e9bf804853","name":"台灣聯通集賢停車場","category":"parking","facilityType":"offstreet-parking","sourceUpdatedAt":"2026-07-20T06:01:00.530Z","carCapacity":140},"geometry":{"type":"Point","coordinates":[121.487695,25.089403]}},{"type":"Feature","properties":{"id":"0a2a2c0c00df319e3b2ce567","name":"中纖大樓停車場","category":"parking","facilityType":"offstreet-parking","sourceUpdatedAt":"2026-07-20T06:01:00.530Z","carCapacity":42},"geometry":{"type":"Point","coordinates":[121.4740309,25.0485831]}},{"type":"Feature","properties":{"id":"33d469c97146074f6c6a2870","name":"新北高中停車場","category":"parking","facilityType":"offstreet-parking","sourceUpdatedAt":"2026-07-20T06:01:00.530Z","carCapacity":72},"geometry":{"type":"Point","coordinates":[121.4906569,25.0879096]}},{"type":"Feature","properties":{"id":"50c2643d594dae0acf4d2443","name":"三重區永德平面停車場","category":"parking","facilityType":"offstreet-parking","sourceUpdatedAt":"2026-07-20T06:01:00.530Z","carCapacity":58},"geometry":{"type":"Point","coordinates":[121.4849793,25.0732991]}},{"type":"Feature","properties":{"id":"151cb0d2e615d7449214d1cb","name":"苡富成功場停車場","category":"parking","facilityType":"offstreet-parking","sourceUpdatedAt":"2026-07-20T06:01:00.530Z","carCapacity":29},"geometry":{"type":"Point","coordinates":[121.4904187,25.0504935]}},{"type":"Feature","properties":{"id":"5a9d2b851fd5c3901646c916","name":"台北科技城地下停車場","category":"parking","facilityType":"offstreet-parking","sourceUpdatedAt":"2026-07-20T06:01:00.530Z","carCapacity":21},"geometry":{"type":"Point","coordinates":[121.47121,25.050342]}},{"type":"Feature","properties":{"id":"e32b391356586f79de3069fd","name":"嘟嘟房三重平安站停車場","category":"parking","facilityType":"offstreet-parking","sourceUpdatedAt":"2026-07-20T06:01:00.530Z","carCapacity":10},"geometry":{"type":"Point","coordinates":[121.4983088,25.0642712]}},{"type":"Feature","properties":{"id":"5be77555d946744dc4831c86","name":"湯城三期二站停車場","category":"parking","facilityType":"offstreet-parking","sourceUpdatedAt":"2026-07-20T06:01:00.530Z","carCapacity":154},"geometry":{"type":"Point","coordinates":[121.4681664,25.0471617]}},{"type":"Feature","properties":{"id":"4bcc001784c76b5a5ba29bcd","name":"湯城三期三站停車場","category":"parking","facilityType":"offstreet-parking","sourceUpdatedAt":"2026-07-20T06:01:00.530Z","carCapacity":49},"geometry":{"type":"Point","coordinates":[121.4694457,25.046095]}},{"type":"Feature","properties":{"id":"8a55294e0094eccfe59f95aa","name":"觀光市集北側區停車場","category":"parking","facilityType":"offstreet-parking","sourceUpdatedAt":"2026-07-20T06:01:00.530Z","carCapacity":263},"geometry":{"type":"Point","coordinates":[121.48143,25.0505861]}},{"type":"Feature","properties":{"id":"784cb504fba60d030196a397","name":"萬善同停車場","category":"parking","facilityType":"offstreet-parking","sourceUpdatedAt":"2026-07-20T06:01:00.530Z","carCapacity":93},"geometry":{"type":"Point","coordinates":[121.477197,25.0617946]}},{"type":"Feature","properties":{"id":"2f03f64d65d2cc4a1cdb60a6","name":"樂遊天地停車場","category":"parking","facilityType":"offstreet-parking","sourceUpdatedAt":"2026-07-20T06:01:00.530Z","carCapacity":185},"geometry":{"type":"Point","coordinates":[121.4771555,25.0592668]}},{"type":"Feature","properties":{"id":"4ed89dac3563cc936bbecbbf","name":"疏洪籃球場區停車場","category":"parking","facilityType":"offstreet-parking","sourceUpdatedAt":"2026-07-20T06:01:00.530Z","carCapacity":75},"geometry":{"type":"Point","coordinates":[121.472413,25.0626766]}},{"type":"Feature","properties":{"id":"46566602734e9104c125d33c","name":"湯城三期一站停車場","category":"parking","facilityType":"offstreet-parking","sourceUpdatedAt":"2026-07-20T06:01:00.530Z","carCapacity":180},"geometry":{"type":"Point","coordinates":[121.469287,25.0460341]}},{"type":"Feature","properties":{"id":"3a7bc9ba907c6735fc4b54e5","name":"三重區後埔停車場","category":"parking","facilityType":"offstreet-parking","sourceUpdatedAt":"2026-07-20T06:01:00.530Z","carCapacity":23},"geometry":{"type":"Point","coordinates":[121.4772853,25.0477547]}},{"type":"Feature","properties":{"id":"c05e3605232635a06a307d81","name":"168停車聯盟-三重永福場停車場","category":"parking","facilityType":"offstreet-parking","sourceUpdatedAt":"2026-07-20T06:01:00.530Z","carCapacity":6},"geometry":{"type":"Point","coordinates":[121.4832235,25.0782784]}},{"type":"Feature","properties":{"id":"7425b7b7442fbc19310c9d3d","name":"三重仁信段平面停車場","category":"parking","facilityType":"offstreet-parking","sourceUpdatedAt":"2026-07-20T06:01:00.530Z","carCapacity":290},"geometry":{"type":"Point","coordinates":[121.4963887,25.0784968]}},{"type":"Feature","properties":{"id":"c9d76b4615c8d7d54e082a55","name":"聯永物業股份有限公司-三重六站停車場","category":"parking","facilityType":"offstreet-parking","sourceUpdatedAt":"2026-07-20T06:01:00.530Z","carCapacity":5},"geometry":{"type":"Point","coordinates":[121.4961818,25.0615825]}},{"type":"Feature","properties":{"id":"d6d0529e457b03905f61b762","name":"宏達經營管理顧問有限公司慈濟停車場","category":"parking","facilityType":"offstreet-parking","sourceUpdatedAt":"2026-07-20T06:01:00.530Z","carCapacity":203},"geometry":{"type":"Point","coordinates":[121.47386,25.06848]}},{"type":"Feature","properties":{"id":"4413ac7375ce964dc70f57a0","name":"Times三重秀江街停車場","category":"parking","facilityType":"offstreet-parking","sourceUpdatedAt":"2026-07-20T06:01:00.530Z","carCapacity":5},"geometry":{"type":"Point","coordinates":[121.49698,25.071703]}},{"type":"Feature","properties":{"id":"e0276a21caf7ce766636f470","name":"三重停八平面停車場","category":"parking","facilityType":"offstreet-parking","sourceUpdatedAt":"2026-07-20T06:01:00.530Z","carCapacity":37},"geometry":{"type":"Point","coordinates":[121.47609,25.053695]}},{"type":"Feature","properties":{"id":"b73d175fa28b8bf6449da211","name":"三重興德站停車場","category":"parking","facilityType":"offstreet-parking","sourceUpdatedAt":"2026-07-20T06:01:00.530Z","carCapacity":26},"geometry":{"type":"Point","coordinates":[121.4764697,25.0534008]}},{"type":"Feature","properties":{"id":"1792bc09ce45686e0d474118","name":"三重頂文二街停車場","category":"parking","facilityType":"offstreet-parking","sourceUpdatedAt":"2026-07-20T06:01:00.530Z","carCapacity":16},"geometry":{"type":"Point","coordinates":[121.4768753,25.0552602]}},{"type":"Feature","properties":{"id":"202849e4b98f753f66f00329","name":"新北市立聯合醫院三重院區停車場","category":"parking","facilityType":"offstreet-parking","sourceUpdatedAt":"2026-07-20T06:01:00.530Z","carCapacity":130},"geometry":{"type":"Point","coordinates":[121.491094,25.0607788]}},{"type":"Feature","properties":{"id":"8191cc3cb418435d621120d9","name":"淡水河畔公園停車場","category":"parking","facilityType":"offstreet-parking","sourceUpdatedAt":"2026-07-20T06:01:00.530Z","carCapacity":703},"geometry":{"type":"Point","coordinates":[121.5025099,25.0784672]}},{"type":"Feature","properties":{"id":"6de788afeaf47480729e155b","name":"晉呈資產管理有限公司神農四停車場","category":"parking","facilityType":"offstreet-parking","sourceUpdatedAt":"2026-07-20T06:01:00.530Z","carCapacity":81},"geometry":{"type":"Point","coordinates":[121.4758431,25.0487082]}},{"type":"Feature","properties":{"id":"755a32cf24aff1be518b2d9b","name":"文中小平面停車場","category":"parking","facilityType":"offstreet-parking","sourceUpdatedAt":"2026-07-20T06:01:00.530Z","carCapacity":262},"geometry":{"type":"Point","coordinates":[121.4815388,25.0611667]}},{"type":"Feature","properties":{"id":"a0515239107d7985af6daedb","name":"正義國小地下停車場","category":"parking","facilityType":"offstreet-parking","sourceUpdatedAt":"2026-07-20T06:01:00.530Z","carCapacity":296},"geometry":{"type":"Point","coordinates":[121.4961164,25.0650369]}},{"type":"Feature","properties":{"id":"84f1adc37d15e1e2736b3bae","name":"三重區龍門公園地下停車場","category":"parking","facilityType":"offstreet-parking","sourceUpdatedAt":"2026-07-20T06:01:00.530Z","carCapacity":427},"geometry":{"type":"Point","coordinates":[121.4980221,25.0742572]}},{"type":"Feature","properties":{"id":"1e2daa91cdb7b86134253a44","name":"便利停車場三重三站","category":"parking","facilityType":"offstreet-parking","sourceUpdatedAt":"2026-07-20T06:01:00.530Z","carCapacity":110},"geometry":{"type":"Point","coordinates":[121.4925936,25.0630227]}},{"type":"Feature","properties":{"id":"375cc71cc39be41dae2a90a8","name":"翔譽A+停車場","category":"parking","facilityType":"offstreet-parking","sourceUpdatedAt":"2026-07-20T06:01:00.530Z","carCapacity":21},"geometry":{"type":"Point","coordinates":[121.4877373,25.0513509]}},{"type":"Feature","properties":{"id":"455c79ff86bacf86bdfc14ce","name":"三重區五常公園地下停車場","category":"parking","facilityType":"offstreet-parking","sourceUpdatedAt":"2026-07-20T06:01:00.530Z","carCapacity":80},"geometry":{"type":"Point","coordinates":[121.4958559,25.0840238]}},{"type":"Feature","properties":{"id":"3fa0b7ae65e7d067a5684539","name":"三重區厚德國小地下停車場","category":"parking","facilityType":"offstreet-parking","sourceUpdatedAt":"2026-07-20T06:01:00.530Z","carCapacity":95},"geometry":{"type":"Point","coordinates":[121.4890241,25.0711724]}},{"type":"Feature","properties":{"id":"b90cd1f88e9cf872a623af3d","name":"忠孝碼頭停車場","category":"parking","facilityType":"offstreet-parking","sourceUpdatedAt":"2026-07-20T06:01:00.530Z","carCapacity":276},"geometry":{"type":"Point","coordinates":[121.499277,25.0561517]}},{"type":"Feature","properties":{"id":"752c068ad665ff0346029de1","name":"宏仁醫院收費停車場","category":"parking","facilityType":"offstreet-parking","sourceUpdatedAt":"2026-07-20T06:01:00.530Z","carCapacity":53},"geometry":{"type":"Point","coordinates":[121.483786,25.053917]}},{"type":"Feature","properties":{"id":"52b202d0477aa17e0750ef81","name":"三光國小地下室停車場","category":"parking","facilityType":"offstreet-parking","sourceUpdatedAt":"2026-07-20T06:01:00.530Z","carCapacity":79},"geometry":{"type":"Point","coordinates":[121.4966359,25.0561966]}},{"type":"Feature","properties":{"id":"5a9b53580cf346fe81c46491","name":"三重自強臨時平面停車場","category":"parking","facilityType":"offstreet-parking","sourceUpdatedAt":"2026-07-20T06:01:00.530Z","carCapacity":208},"geometry":{"type":"Point","coordinates":[121.4951327,25.0821772]}},{"type":"Feature","properties":{"id":"0d39dac26d5181355167d27f","name":"三重忠孝路臨時平面停車場","category":"parking","facilityType":"offstreet-parking","sourceUpdatedAt":"2026-07-20T06:01:00.530Z","carCapacity":50},"geometry":{"type":"Point","coordinates":[121.4816563,25.0641049]}},{"type":"Feature","properties":{"id":"834436c2ebec3aaccefd3bd2","name":"三重興穀國小地下停車場","category":"parking","facilityType":"offstreet-parking","sourceUpdatedAt":"2026-07-20T06:01:00.530Z","carCapacity":73},"geometry":{"type":"Point","coordinates":[121.4742348,25.0505578]}},{"type":"Feature","properties":{"id":"7bb76fec026b19d80fc7b047","name":"三重區光明公有零售市場所屬停車場","category":"parking","facilityType":"offstreet-parking","sourceUpdatedAt":"2026-07-20T06:01:00.530Z","carCapacity":50},"geometry":{"type":"Point","coordinates":[121.4916555,25.057432]}},{"type":"Feature","properties":{"id":"9289187d170c59afb4bd9c8a","name":"三重忠孝高架橋下重安段停車場","category":"parking","facilityType":"offstreet-parking","sourceUpdatedAt":"2026-07-20T06:01:00.530Z","carCapacity":83},"geometry":{"type":"Point","coordinates":[121.4927762,25.0563765]}},{"type":"Feature","properties":{"id":"e69c26a5bc99f1131ec74c49","name":"幸福水漾公園區停車場","category":"parking","facilityType":"offstreet-parking","sourceUpdatedAt":"2026-07-20T06:01:00.530Z","carCapacity":173},"geometry":{"type":"Point","coordinates":[121.4818158,25.0503997]}},{"type":"Feature","properties":{"id":"e7b365b53ec267d0535b7b81","name":"親水公園區停車場","category":"parking","facilityType":"offstreet-parking","sourceUpdatedAt":"2026-07-20T06:01:00.530Z","carCapacity":277},"geometry":{"type":"Point","coordinates":[121.4713837,25.0669501]}},{"type":"Feature","properties":{"id":"7ae4696fccc3fc3d5103b0fa","name":"荷花公園區停車場","category":"parking","facilityType":"offstreet-parking","sourceUpdatedAt":"2026-07-20T06:01:00.530Z","carCapacity":525},"geometry":{"type":"Point","coordinates":[121.4724361,25.0660982]}},{"type":"Feature","properties":{"id":"163276e459eb953453e1f478","name":"觀光市集南側區停車場","category":"parking","facilityType":"offstreet-parking","sourceUpdatedAt":"2026-07-20T06:01:00.530Z","carCapacity":466},"geometry":{"type":"Point","coordinates":[121.4817095,25.0498223]}},{"type":"Feature","properties":{"id":"49bb68f6c2457440cd6bed30","name":"青年社會住宅三重1館停車場","category":"parking","facilityType":"offstreet-parking","sourceUpdatedAt":"2026-07-20T06:01:00.530Z","carCapacity":62},"geometry":{"type":"Point","coordinates":[121.4965374,25.0553754]}},{"type":"Feature","properties":{"id":"0812c4b4121ccc5a48c90b24","name":"青年社會住宅三重2館停車場","category":"parking","facilityType":"offstreet-parking","sourceUpdatedAt":"2026-07-20T06:01:00.530Z","carCapacity":48},"geometry":{"type":"Point","coordinates":[121.4980413,25.0576816]}},{"type":"Feature","properties":{"id":"2cbf36924199bb0c584a168f","name":"青年社會住宅三重3館停車場","category":"parking","facilityType":"offstreet-parking","sourceUpdatedAt":"2026-07-20T06:01:00.530Z","carCapacity":48},"geometry":{"type":"Point","coordinates":[121.4987814,25.0578596]}},{"type":"Feature","properties":{"id":"3943e78118ef1698f5ba2139","name":"中山棒球場區停車場","category":"parking","facilityType":"offstreet-parking","sourceUpdatedAt":"2026-07-20T06:01:00.530Z","carCapacity":115},"geometry":{"type":"Point","coordinates":[121.4731796,25.0622724]}},{"type":"Feature","properties":{"id":"31628abd62ff0fccd4e98bdb","name":"美麗人生停車場","category":"parking","facilityType":"offstreet-parking","sourceUpdatedAt":"2026-07-20T06:01:00.530Z","carCapacity":77},"geometry":{"type":"Point","coordinates":[121.4721305,25.0484311]}},{"type":"Feature","properties":{"id":"0ff95a0df7e19e4d01e46cff","name":"宏達經營管理顧問有限公司仁義停車場","category":"parking","facilityType":"offstreet-parking","sourceUpdatedAt":"2026-07-20T06:01:00.530Z","carCapacity":124},"geometry":{"type":"Point","coordinates":[121.4994167,25.0798634]}}]}
