{"type":"FeatureCollection","features":[{"type":"Feature","properties":{"id":"366f82516e51cc9df1a3591f","name":"捷運芝山站停車場(北側)","category":"parking","facilityType":"offstreet-parking","sourceUpdatedAt":"2026-07-20T06:01:00.530Z","carCapacity":30},"geometry":{"type":"Point","coordinates":[121.5228233,25.101658]}},{"type":"Feature","properties":{"id":"b9f2623b1ecc8da4a5a7134f","name":"USPACE 福林第一停車場","category":"parking","facilityType":"offstreet-parking","sourceUpdatedAt":"2026-07-20T06:01:00.530Z","carCapacity":49},"geometry":{"type":"Point","coordinates":[121.5272868,25.0927815]}},{"type":"Feature","properties":{"id":"212a9cf4cfa09d3ed600841d","name":"叭叭房新光醫院地下停車場","category":"parking","facilityType":"offstreet-parking","sourceUpdatedAt":"2026-07-20T06:01:00.530Z","carCapacity":85},"geometry":{"type":"Point","coordinates":[121.5203576,25.0963921]}},{"type":"Feature","properties":{"id":"1bf9e9e45db1ba70e010850a","name":"大葉天母停車場","category":"parking","facilityType":"offstreet-parking","sourceUpdatedAt":"2026-07-20T06:01:00.530Z","carCapacity":1502},"geometry":{"type":"Point","coordinates":[121.5317436,25.1115267]}},{"type":"Feature","properties":{"id":"4485e690c75caa70322d98c6","name":"百齡高中地下停車場","category":"parking","facilityType":"offstreet-parking","sourceUpdatedAt":"2026-07-20T06:01:00.530Z","carCapacity":231},"geometry":{"type":"Point","coordinates":[121.5235942,25.0858347]}},{"type":"Feature","properties":{"id":"8844ef57acc66ad2fbf6685b","name":"前港公園地下停車場","category":"parking","facilityType":"offstreet-parking","sourceUpdatedAt":"2026-07-20T06:01:00.530Z","carCapacity":528},"geometry":{"type":"Point","coordinates":[121.521325,25.0860359]}},{"type":"Feature","properties":{"id":"9670e223ca08b978d2a4775c","name":"至善公園平面停車場","category":"parking","facilityType":"offstreet-parking","sourceUpdatedAt":"2026-07-20T06:01:00.530Z","carCapacity":13},"geometry":{"type":"Point","coordinates":[121.5383407,25.0981077]}},{"type":"Feature","properties":{"id":"1d4c89908175bcd87642d5d9","name":"新光天母傑仕堡停車場","category":"parking","facilityType":"offstreet-parking","sourceUpdatedAt":"2026-07-20T06:01:00.530Z","carCapacity":187},"geometry":{"type":"Point","coordinates":[121.5335558,25.11644]}},{"type":"Feature","properties":{"id":"7208e7458a12c4b6e967b254","name":"嘟嘟房捷運芝山站停車場","category":"parking","facilityType":"offstreet-parking","sourceUpdatedAt":"2026-07-20T06:01:00.530Z","carCapacity":164},"geometry":{"type":"Point","coordinates":[121.5228233,25.1016581]}},{"type":"Feature","properties":{"id":"3b9d20a23aa1ff24c709d18f","name":"臺北市立天文科學教育館地下及戶外平面停車場","category":"parking","facilityType":"offstreet-parking","sourceUpdatedAt":"2026-07-20T06:01:00.530Z","carCapacity":279},"geometry":{"type":"Point","coordinates":[121.518365,25.0958287]}},{"type":"Feature","properties":{"id":"f7cc04416ab69ee450b6b60b","name":"中華民國農民團體幹部聯合訓練協會","category":"parking","facilityType":"offstreet-parking","sourceUpdatedAt":"2026-07-20T06:01:00.530Z","carCapacity":56},"geometry":{"type":"Point","coordinates":[121.5311624,25.1223167]}},{"type":"Feature","properties":{"id":"7a82c2250d921fdf1d6ad2c5","name":"臺北市立聯合醫院-陽明院區停車場","category":"parking","facilityType":"offstreet-parking","sourceUpdatedAt":"2026-07-20T06:01:00.530Z","carCapacity":57},"geometry":{"type":"Point","coordinates":[121.5316489,25.1056595]}},{"type":"Feature","properties":{"id":"3a895513317681fbe247055b","name":"嘟嘟房捷運士林站停車場","category":"parking","facilityType":"offstreet-parking","sourceUpdatedAt":"2026-07-20T06:01:00.530Z","carCapacity":61},"geometry":{"type":"Point","coordinates":[121.5263706,25.0921574]}},{"type":"Feature","properties":{"id":"8c40a375a307e8763ecd4440","name":"社中街平面停車場","category":"parking","facilityType":"offstreet-parking","sourceUpdatedAt":"2026-07-20T06:01:00.530Z","carCapacity":31},"geometry":{"type":"Point","coordinates":[121.5105595,25.0896767]}},{"type":"Feature","properties":{"id":"a9e908e3b1c7aac2267fa61e","name":"天母公園平面停車場","category":"parking","facilityType":"offstreet-parking","sourceUpdatedAt":"2026-07-20T06:01:00.530Z","carCapacity":14},"geometry":{"type":"Point","coordinates":[121.5308232,25.1255227]}},{"type":"Feature","properties":{"id":"6ed9f001d72b09f8fef48386","name":"社正路平面停車場","category":"parking","facilityType":"offstreet-parking","sourceUpdatedAt":"2026-07-20T06:01:00.530Z","carCapacity":31},"geometry":{"type":"Point","coordinates":[121.5090751,25.088069]}},{"type":"Feature","properties":{"id":"33c033dc1b46cfac9d67e00c","name":"美德街平面停車場","category":"parking","facilityType":"offstreet-parking","sourceUpdatedAt":"2026-07-20T06:01:00.530Z","carCapacity":15},"geometry":{"type":"Point","coordinates":[121.5247527,25.0970618]}},{"type":"Feature","properties":{"id":"3ad8f73be714d333801caa0e","name":"歐特儀股份有限公司擎天崗停車場","category":"parking","facilityType":"offstreet-parking","sourceUpdatedAt":"2026-07-20T06:01:00.530Z","carCapacity":81},"geometry":{"type":"Point","coordinates":[121.5739181,25.1667012]}},{"type":"Feature","properties":{"id":"abe318399c8da0a4e5735c74","name":"臺北市士林區行政中心地下停車場","category":"parking","facilityType":"offstreet-parking","sourceUpdatedAt":"2026-07-20T06:01:00.530Z","carCapacity":103},"geometry":{"type":"Point","coordinates":[121.5197666,25.0928377]}},{"type":"Feature","properties":{"id":"4157afe63e875ca78d13547a","name":"和雲台北德行東路停車場","category":"parking","facilityType":"offstreet-parking","sourceUpdatedAt":"2026-07-20T06:01:00.530Z","carCapacity":47},"geometry":{"type":"Point","coordinates":[121.527014,25.1070591]}},{"type":"Feature","properties":{"id":"156c812b95f2125717648703","name":"劍潭抽水站堤外平面停車場","category":"parking","facilityType":"offstreet-parking","sourceUpdatedAt":"2026-07-20T06:01:00.530Z","carCapacity":256},"geometry":{"type":"Point","coordinates":[121.5189148,25.0797476]}},{"type":"Feature","properties":{"id":"9a6e9c77fc947e144cf3ef33","name":"百齡橋堤外平面停車場","category":"parking","facilityType":"offstreet-parking","sourceUpdatedAt":"2026-07-20T06:01:00.530Z","carCapacity":447},"geometry":{"type":"Point","coordinates":[121.5118965,25.0906467]}},{"type":"Feature","properties":{"id":"312d1db021b512f361ad51c7","name":"東和公園平面停車場","category":"parking","facilityType":"offstreet-parking","sourceUpdatedAt":"2026-07-20T06:01:00.530Z","carCapacity":40},"geometry":{"type":"Point","coordinates":[121.5333268,25.120099]}},{"type":"Feature","properties":{"id":"c6b9f17f62dd150f3006c1ed","name":"社園立體停車場","category":"parking","facilityType":"offstreet-parking","sourceUpdatedAt":"2026-07-20T06:01:00.530Z","carCapacity":266},"geometry":{"type":"Point","coordinates":[121.5059451,25.0895841]}},{"type":"Feature","properties":{"id":"83b7311deb70d7ae706bde31","name":"中國文化大學大恩館停車塔","category":"parking","facilityType":"offstreet-parking","sourceUpdatedAt":"2026-07-20T06:01:00.530Z","carCapacity":40},"geometry":{"type":"Point","coordinates":[121.5387053,25.1366662]}},{"type":"Feature","properties":{"id":"616bf242cdc6d6192ceaeee5","name":"士林一號廣場(西側)地下停車場","category":"parking","facilityType":"offstreet-parking","sourceUpdatedAt":"2026-07-20T06:01:00.530Z","carCapacity":222},"geometry":{"type":"Point","coordinates":[121.5298131,25.1185375]}},{"type":"Feature","properties":{"id":"7935cc188b58bf3bfdcd6e50","name":"士林一號廣場(東側)地下停車場","category":"parking","facilityType":"offstreet-parking","sourceUpdatedAt":"2026-07-20T06:01:00.530Z","carCapacity":99},"geometry":{"type":"Point","coordinates":[121.5305967,25.1184925]}},{"type":"Feature","properties":{"id":"18869f3d60c4a24f4bdba3ee","name":"至誠平面停車場","category":"parking","facilityType":"offstreet-parking","sourceUpdatedAt":"2026-07-20T06:01:00.530Z","carCapacity":83},"geometry":{"type":"Point","coordinates":[121.5313508,25.1019759]}},{"type":"Feature","properties":{"id":"04aec0f4969d964c1bb252f2","name":"士林電機仰德大樓停車場","category":"parking","facilityType":"offstreet-parking","sourceUpdatedAt":"2026-07-20T06:01:00.530Z","carCapacity":233},"geometry":{"type":"Point","coordinates":[121.5250927,25.1050325]}},{"type":"Feature","properties":{"id":"81eb2a82d402bceff675315f","name":"文昌國小地下停車場","category":"parking","facilityType":"offstreet-parking","sourceUpdatedAt":"2026-07-20T06:01:00.530Z","carCapacity":222},"geometry":{"type":"Point","coordinates":[121.5219554,25.0994131]}},{"type":"Feature","properties":{"id":"f510c11466a10a4be5007cce","name":"百齡橋堤外槌球場南側臨時平面停車場","category":"parking","facilityType":"offstreet-parking","sourceUpdatedAt":"2026-07-20T06:01:00.530Z","carCapacity":299},"geometry":{"type":"Point","coordinates":[121.5127583,25.086961]}},{"type":"Feature","properties":{"id":"907101bf0062e2a097eaf58a","name":"國立臺灣科學教育館地下停車場","category":"parking","facilityType":"offstreet-parking","sourceUpdatedAt":"2026-07-20T06:01:00.530Z","carCapacity":455},"geometry":{"type":"Point","coordinates":[121.5161522,25.0960267]}},{"type":"Feature","properties":{"id":"459f7ba21d9b1488a60435f1","name":"故宮廣場平面停車場","category":"parking","facilityType":"offstreet-parking","sourceUpdatedAt":"2026-07-20T06:01:00.530Z","carCapacity":87},"geometry":{"type":"Point","coordinates":[121.5484027,25.0985623]}},{"type":"Feature","properties":{"id":"f40449295e097692e6849876","name":"新光三越百貨股份有限公司台北天母分公司二館停車場","category":"parking","facilityType":"offstreet-parking","sourceUpdatedAt":"2026-07-20T06:01:00.530Z","carCapacity":125},"geometry":{"type":"Point","coordinates":[121.5341104,25.1172264]}},{"type":"Feature","properties":{"id":"a54c2fa1812b5225b76a5087","name":"新光三越百貨股份有限公司台北天母分公司停車場","category":"parking","facilityType":"offstreet-parking","sourceUpdatedAt":"2026-07-20T06:01:00.530Z","carCapacity":138},"geometry":{"type":"Point","coordinates":[121.5339295,25.1179204]}},{"type":"Feature","properties":{"id":"f88098bb25b10f890c15fafa","name":"宏達經營管理顧問有限公司基河停車場","category":"parking","facilityType":"offstreet-parking","sourceUpdatedAt":"2026-07-20T06:01:00.530Z","carCapacity":133},"geometry":{"type":"Point","coordinates":[121.5209448,25.0915446]}},{"type":"Feature","properties":{"id":"3457bf0212c95e29bda8a274","name":"雙溪公園平面停車場","category":"parking","facilityType":"offstreet-parking","sourceUpdatedAt":"2026-07-20T06:01:00.530Z","carCapacity":6},"geometry":{"type":"Point","coordinates":[121.5371978,25.0980239]}},{"type":"Feature","properties":{"id":"d8a6e9203745c9fd771059d9","name":"三腳渡平面停車場","category":"parking","facilityType":"offstreet-parking","sourceUpdatedAt":"2026-07-20T06:01:00.530Z","carCapacity":124},"geometry":{"type":"Point","coordinates":[121.5165286,25.0819697]}},{"type":"Feature","properties":{"id":"4c0f858a919b3f1a409b39ec","name":"全聯天母天玉停車場","category":"parking","facilityType":"offstreet-parking","sourceUpdatedAt":"2026-07-20T06:01:00.530Z","carCapacity":10},"geometry":{"type":"Point","coordinates":[121.5292419,25.1190056]}},{"type":"Feature","properties":{"id":"da364ba342e864153889d9ae","name":"臺北市公有士東市場地下室停車場","category":"parking","facilityType":"offstreet-parking","sourceUpdatedAt":"2026-07-20T06:01:00.530Z","carCapacity":10},"geometry":{"type":"Point","coordinates":[121.5294578,25.1119599]}},{"type":"Feature","properties":{"id":"3cff0d8e4f4ff082b97fb87b","name":"基河路10號國宅地下停車場","category":"parking","facilityType":"offstreet-parking","sourceUpdatedAt":"2026-07-20T06:01:00.530Z","carCapacity":9},"geometry":{"type":"Point","coordinates":[121.5227621,25.0890836]}},{"type":"Feature","properties":{"id":"0d6ecb796d46bbd9387cdb6c","name":"士林一品地下停車場","category":"parking","facilityType":"offstreet-parking","sourceUpdatedAt":"2026-07-20T06:01:00.530Z","carCapacity":49},"geometry":{"type":"Point","coordinates":[121.5230695,25.0878602]}},{"type":"Feature","properties":{"id":"76d2dc7dc891b67308b3d2ac","name":"歐特儀股份有限公司冷水坑1號停車場","category":"parking","facilityType":"offstreet-parking","sourceUpdatedAt":"2026-07-20T06:01:00.530Z","carCapacity":80},"geometry":{"type":"Point","coordinates":[121.5637455,25.1659982]}},{"type":"Feature","properties":{"id":"a14bf1e2ad111c1a3c2be60f","name":"USPACE福林第二停車場","category":"parking","facilityType":"offstreet-parking","sourceUpdatedAt":"2026-07-20T06:01:00.530Z","carCapacity":10},"geometry":{"type":"Point","coordinates":[121.5276051,25.0932689]}},{"type":"Feature","properties":{"id":"f4a86d3133dabed661ede8d5","name":"海光公園地下停車場","category":"parking","facilityType":"offstreet-parking","sourceUpdatedAt":"2026-07-20T06:01:00.530Z","carCapacity":105},"geometry":{"type":"Point","coordinates":[121.5084237,25.0809374]}},{"type":"Feature","properties":{"id":"ea4c8e78ecf5fba7794d628f","name":"文林加油站停車場","category":"parking","facilityType":"offstreet-parking","sourceUpdatedAt":"2026-07-20T06:01:00.530Z","carCapacity":11},"geometry":{"type":"Point","coordinates":[121.5262163,25.0875385]}},{"type":"Feature","properties":{"id":"3422d11d025bd8bc961f5ac7","name":"百齡橋堤外（一）平面停車場","category":"parking","facilityType":"offstreet-parking","sourceUpdatedAt":"2026-07-20T06:01:00.530Z","carCapacity":135},"geometry":{"type":"Point","coordinates":[121.5101369,25.0925512]}},{"type":"Feature","properties":{"id":"49822200011130505b4576fe","name":"全之駐葫蘆堵停車場","category":"parking","facilityType":"offstreet-parking","sourceUpdatedAt":"2026-07-20T06:01:00.530Z","carCapacity":54},"geometry":{"type":"Point","coordinates":[121.5107502,25.0823199]}},{"type":"Feature","properties":{"id":"ff93b677db9f125a717126d3","name":"好庭車停車場","category":"parking","facilityType":"offstreet-parking","sourceUpdatedAt":"2026-07-20T06:01:00.530Z","carCapacity":45},"geometry":{"type":"Point","coordinates":[121.5238169,25.1029436]}},{"type":"Feature","properties":{"id":"f2b3d3cc4fc111f900e22b1a","name":"臺北市士林運動中心地下停車場","category":"parking","facilityType":"offstreet-parking","sourceUpdatedAt":"2026-07-20T06:01:00.530Z","carCapacity":63},"geometry":{"type":"Point","coordinates":[121.521327,25.0895963]}},{"type":"Feature","properties":{"id":"fa88930a77ae7e6f2145e8b2","name":"福港街平面停車場","category":"parking","facilityType":"offstreet-parking","sourceUpdatedAt":"2026-07-20T06:01:00.530Z","carCapacity":62},"geometry":{"type":"Point","coordinates":[121.5186269,25.0871884]}},{"type":"Feature","properties":{"id":"0a7d62ed6c0e96984d97b162","name":"太平洋崇光百貨股份有限公司天母停車場","category":"parking","facilityType":"offstreet-parking","sourceUpdatedAt":"2026-07-20T06:01:00.530Z","carCapacity":368},"geometry":{"type":"Point","coordinates":[121.5242093,25.1054786]}},{"type":"Feature","properties":{"id":"b0dc519813ab950796cbf23d","name":"通通停士東國小站停車場","category":"parking","facilityType":"offstreet-parking","sourceUpdatedAt":"2026-07-20T06:01:00.530Z","carCapacity":8},"geometry":{"type":"Point","coordinates":[121.5272469,25.1136427]}},{"type":"Feature","properties":{"id":"5a8ee8d8bcae0420e5379dc2","name":"台北新天地停車場","category":"parking","facilityType":"offstreet-parking","sourceUpdatedAt":"2026-07-20T06:01:00.530Z","carCapacity":146},"geometry":{"type":"Point","coordinates":[121.5227927,25.0906654]}},{"type":"Feature","properties":{"id":"28389a416ec7383ad6c70f5a","name":"臺北市立大學天母校區教學、行政科資大樓地下停車場","category":"parking","facilityType":"offstreet-parking","sourceUpdatedAt":"2026-07-20T06:01:00.530Z","carCapacity":472},"geometry":{"type":"Point","coordinates":[121.5364444,25.1160867]}},{"type":"Feature","properties":{"id":"9f7029c7bc73a16307891ffa","name":"忠誠路（一）平面停車場","category":"parking","facilityType":"offstreet-parking","sourceUpdatedAt":"2026-07-20T06:01:00.530Z","carCapacity":24},"geometry":{"type":"Point","coordinates":[121.5297394,25.107309]}},{"type":"Feature","properties":{"id":"c22688cf20cb4ce37af5f248","name":"社子國小地下停車場","category":"parking","facilityType":"offstreet-parking","sourceUpdatedAt":"2026-07-20T06:01:00.530Z","carCapacity":464},"geometry":{"type":"Point","coordinates":[121.5021668,25.0913483]}},{"type":"Feature","properties":{"id":"825652e539a64d8105010be3","name":"忠誠路（二）平面停車場","category":"parking","facilityType":"offstreet-parking","sourceUpdatedAt":"2026-07-20T06:01:00.530Z","carCapacity":35},"geometry":{"type":"Point","coordinates":[121.5293839,25.106658]}},{"type":"Feature","properties":{"id":"c8fd88076b214bce63894710","name":"承德公園地下停車場","category":"parking","facilityType":"offstreet-parking","sourceUpdatedAt":"2026-07-20T06:01:00.530Z","carCapacity":176},"geometry":{"type":"Point","coordinates":[121.5222728,25.0897589]}},{"type":"Feature","properties":{"id":"5e764d9af93f4153f0452c05","name":"愛馬屋天母場","category":"parking","facilityType":"offstreet-parking","sourceUpdatedAt":"2026-07-20T06:01:00.530Z","carCapacity":17},"geometry":{"type":"Point","coordinates":[121.5373078,25.1115042]}},{"type":"Feature","properties":{"id":"1f168f2c65835e25ffe6377f","name":"Times 基河路第5","category":"parking","facilityType":"offstreet-parking","sourceUpdatedAt":"2026-07-20T06:01:00.530Z","carCapacity":9},"geometry":{"type":"Point","coordinates":[121.5222739,25.0919178]}},{"type":"Feature","properties":{"id":"27fbe77c85877294984d39cf","name":"嘟嘟房天母全聯2站停車場","category":"parking","facilityType":"offstreet-parking","sourceUpdatedAt":"2026-07-20T06:01:00.530Z","carCapacity":20},"geometry":{"type":"Point","coordinates":[121.5329885,25.1235013]}},{"type":"Feature","properties":{"id":"d60db6ba0a26d5a4f9e0d776","name":"叭叭房聖賢大樓停車場","category":"parking","facilityType":"offstreet-parking","sourceUpdatedAt":"2026-07-20T06:01:00.530Z","carCapacity":49},"geometry":{"type":"Point","coordinates":[121.5200971,25.0909809]}},{"type":"Feature","properties":{"id":"f4ac99f4ae691d0b6da37b76","name":"車堡寶實業股份有限公司中山北一場","category":"parking","facilityType":"offstreet-parking","sourceUpdatedAt":"2026-07-20T06:01:00.530Z","carCapacity":13},"geometry":{"type":"Point","coordinates":[121.528926,25.115577]}},{"type":"Feature","properties":{"id":"0f9f7d5bd9d9826508d15e0f","name":"Times基河路第6","category":"parking","facilityType":"offstreet-parking","sourceUpdatedAt":"2026-07-20T06:01:00.530Z","carCapacity":45},"geometry":{"type":"Point","coordinates":[121.518647,25.0943806]}},{"type":"Feature","properties":{"id":"d519c0b810afeb3ba364e82a","name":"葫蘆國小夜間停車場","category":"parking","facilityType":"offstreet-parking","sourceUpdatedAt":"2026-07-20T06:01:00.530Z","carCapacity":26},"geometry":{"type":"Point","coordinates":[121.5075812,25.0838803]}},{"type":"Feature","properties":{"id":"60e2fd5975150753a2b089e7","name":"蘭雅公園地下停車場","category":"parking","facilityType":"offstreet-parking","sourceUpdatedAt":"2026-07-20T06:01:00.530Z","carCapacity":155},"geometry":{"type":"Point","coordinates":[121.5292423,25.1096362]}},{"type":"Feature","properties":{"id":"dc22c131688a43de133a34fa","name":"Times基河路第2","category":"parking","facilityType":"offstreet-parking","sourceUpdatedAt":"2026-07-20T06:01:00.530Z","carCapacity":49},"geometry":{"type":"Point","coordinates":[121.5178976,25.0950162]}},{"type":"Feature","properties":{"id":"d07b8f8595b03af37ffa529d","name":"福林公園地下停車場","category":"parking","facilityType":"offstreet-parking","sourceUpdatedAt":"2026-07-20T06:01:00.530Z","carCapacity":229},"geometry":{"type":"Point","coordinates":[121.5306968,25.0959577]}},{"type":"Feature","properties":{"id":"2ebfd8befdc2cbb584677e39","name":"通河西街一段堤外平面停車場","category":"parking","facilityType":"offstreet-parking","sourceUpdatedAt":"2026-07-20T06:01:00.530Z","carCapacity":49},"geometry":{"type":"Point","coordinates":[121.513283,25.0837027]}},{"type":"Feature","properties":{"id":"59e92fd34d618dfbc8569ad2","name":"天玉街停車場","category":"parking","facilityType":"offstreet-parking","sourceUpdatedAt":"2026-07-20T06:01:00.530Z","carCapacity":18},"geometry":{"type":"Point","coordinates":[121.5299843,25.1192743]}},{"type":"Feature","properties":{"id":"321d0cfbdd54418144613f19","name":"兒童新樂園停車場","category":"parking","facilityType":"offstreet-parking","sourceUpdatedAt":"2026-07-20T06:01:00.530Z","carCapacity":442},"geometry":{"type":"Point","coordinates":[121.514837,25.0975397]}},{"type":"Feature","properties":{"id":"76420d0ab0aa2ae93944a662","name":"臺北市立大學天母校區體育館平面停車場","category":"parking","facilityType":"offstreet-parking","sourceUpdatedAt":"2026-07-20T06:01:00.530Z","carCapacity":82},"geometry":{"type":"Point","coordinates":[121.5355985,25.1160166]}},{"type":"Feature","properties":{"id":"92f1057b0fc22227d589ea6a","name":"臺北市立陽明高級中學學生活動中心地下停車場","category":"parking","facilityType":"offstreet-parking","sourceUpdatedAt":"2026-07-20T06:01:00.530Z","carCapacity":20},"geometry":{"type":"Point","coordinates":[121.5171231,25.0921366]}},{"type":"Feature","properties":{"id":"3a8cdfdfd4ba2af50df0f1ae","name":"福林路平面停車場","category":"parking","facilityType":"offstreet-parking","sourceUpdatedAt":"2026-07-20T06:01:00.530Z","carCapacity":88},"geometry":{"type":"Point","coordinates":[121.5327709,25.0963283]}},{"type":"Feature","properties":{"id":"95249656da1840ee014af4fc","name":"臺北市立福安國民中學平面停車場","category":"parking","facilityType":"offstreet-parking","sourceUpdatedAt":"2026-07-20T06:01:00.530Z","carCapacity":5},"geometry":{"type":"Point","coordinates":[121.487449,25.1033838]}},{"type":"Feature","properties":{"id":"61547e65271feaf535609ab8","name":"歐特儀股份有限公司冷水坑2號停車場","category":"parking","facilityType":"offstreet-parking","sourceUpdatedAt":"2026-07-20T06:01:00.530Z","carCapacity":47},"geometry":{"type":"Point","coordinates":[121.5633131,25.167975]}},{"type":"Feature","properties":{"id":"81129f0b28d728a1d8d4574b","name":"Times 德行西路","category":"parking","facilityType":"offstreet-parking","sourceUpdatedAt":"2026-07-20T06:01:00.530Z","carCapacity":4},"geometry":{"type":"Point","coordinates":[121.5243935,25.1064323]}},{"type":"Feature","properties":{"id":"47148c0c4c55b0e86bde6343","name":"福國路橋下平面停車場","category":"parking","facilityType":"offstreet-parking","sourceUpdatedAt":"2026-07-20T06:01:00.530Z","carCapacity":48},"geometry":{"type":"Point","coordinates":[121.5188266,25.1019222]}},{"type":"Feature","properties":{"id":"106e8f8e37e1208fd0e5e960","name":"天鑄停車場","category":"parking","facilityType":"offstreet-parking","sourceUpdatedAt":"2026-07-20T06:01:00.530Z","carCapacity":120},"geometry":{"type":"Point","coordinates":[121.5312988,25.1178624]}},{"type":"Feature","properties":{"id":"08c801c2a987e8760ad686d3","name":"台灣聯通克強停車場","category":"parking","facilityType":"offstreet-parking","sourceUpdatedAt":"2026-07-20T06:01:00.530Z","carCapacity":12},"geometry":{"type":"Point","coordinates":[121.5242692,25.1097786]}},{"type":"Feature","properties":{"id":"6a89dc053c62e277b760f069","name":"臺灣戲曲中心地下停車場","category":"parking","facilityType":"offstreet-parking","sourceUpdatedAt":"2026-07-20T06:01:00.530Z","carCapacity":172},"geometry":{"type":"Point","coordinates":[121.5194721,25.1023429]}},{"type":"Feature","properties":{"id":"881702714cee23fa33411f87","name":"百齡國小附設停車場","category":"parking","facilityType":"offstreet-parking","sourceUpdatedAt":"2026-07-20T06:01:00.530Z","carCapacity":8},"geometry":{"type":"Point","coordinates":[121.5182206,25.0861743]}},{"type":"Feature","properties":{"id":"5ecec75685fb0e9973824cb6","name":"玉璽精品飯店停車場","category":"parking","facilityType":"offstreet-parking","sourceUpdatedAt":"2026-07-20T06:01:00.530Z","carCapacity":20},"geometry":{"type":"Point","coordinates":[121.5312641,25.118658]}},{"type":"Feature","properties":{"id":"75dd5af251ea6e094be1018f","name":"萬麗酒店停車場","category":"parking","facilityType":"offstreet-parking","sourceUpdatedAt":"2026-07-20T06:01:00.530Z","carCapacity":190},"geometry":{"type":"Point","coordinates":[121.5291777,25.0930995]}},{"type":"Feature","properties":{"id":"3f1ce85c370058cbab2d32d0","name":"基河停車場","category":"parking","facilityType":"offstreet-parking","sourceUpdatedAt":"2026-07-20T06:01:00.530Z","carCapacity":607},"geometry":{"type":"Point","coordinates":[121.5203554,25.0941742]}},{"type":"Feature","properties":{"id":"3433ba290d7c6588f0359d12","name":"臺北市立天母國民中學停車場","category":"parking","facilityType":"offstreet-parking","sourceUpdatedAt":"2026-07-20T06:01:00.530Z","carCapacity":20},"geometry":{"type":"Point","coordinates":[121.5381577,25.1178529]}},{"type":"Feature","properties":{"id":"ee33e161dac667af87987266","name":"陽光士林669-12停車場","category":"parking","facilityType":"offstreet-parking","sourceUpdatedAt":"2026-07-20T06:01:00.530Z","carCapacity":49},"geometry":{"type":"Point","coordinates":[121.5226469,25.0914631]}},{"type":"Feature","properties":{"id":"cb739f64b09324be4a8d4e35","name":"陽光士林881停車場","category":"parking","facilityType":"offstreet-parking","sourceUpdatedAt":"2026-07-20T06:01:00.530Z","carCapacity":14},"geometry":{"type":"Point","coordinates":[121.5246939,25.0918312]}},{"type":"Feature","properties":{"id":"d3a4a361a65c3445d435c495","name":"陽光士林209停車場","category":"parking","facilityType":"offstreet-parking","sourceUpdatedAt":"2026-07-20T06:01:00.530Z","carCapacity":49},"geometry":{"type":"Point","coordinates":[121.5233331,25.09231]}},{"type":"Feature","properties":{"id":"551fd2579240393e119666a3","name":"Times士林捷運站","category":"parking","facilityType":"offstreet-parking","sourceUpdatedAt":"2026-07-20T06:01:00.530Z","carCapacity":6},"geometry":{"type":"Point","coordinates":[121.526832,25.0926965]}},{"type":"Feature","properties":{"id":"ae009eb5b811f246a7195496","name":"臺北市政府社會局士林社會福利服務中心基河馨園國宅附設停車場","category":"parking","facilityType":"offstreet-parking","sourceUpdatedAt":"2026-07-20T06:01:00.530Z","carCapacity":4},"geometry":{"type":"Point","coordinates":[121.5225706,25.0894254]}},{"type":"Feature","properties":{"id":"7418c9341bcc62415eb627e7","name":"天玉一停車場","category":"parking","facilityType":"offstreet-parking","sourceUpdatedAt":"2026-07-20T06:01:00.530Z","carCapacity":6},"geometry":{"type":"Point","coordinates":[121.5266996,25.1167669]}},{"type":"Feature","properties":{"id":"5b5bb84242bb2d34a1559e09","name":"天玉二停車場","category":"parking","facilityType":"offstreet-parking","sourceUpdatedAt":"2026-07-20T06:01:00.530Z","carCapacity":6},"geometry":{"type":"Point","coordinates":[121.5269598,25.116159]}},{"type":"Feature","properties":{"id":"f6109eda9d370d18d835bf7b","name":"博客停車場-德行東場","category":"parking","facilityType":"offstreet-parking","sourceUpdatedAt":"2026-07-20T06:01:00.530Z","carCapacity":25},"geometry":{"type":"Point","coordinates":[121.5330587,25.1092119]}},{"type":"Feature","properties":{"id":"4fb02db693c22c815d6391d3","name":"格致路停車場","category":"parking","facilityType":"offstreet-parking","sourceUpdatedAt":"2026-07-20T06:01:00.530Z","carCapacity":49},"geometry":{"type":"Point","coordinates":[121.5474656,25.1390929]}},{"type":"Feature","properties":{"id":"507d4ba6c22fb7f6a13ed5ea","name":"博客停車場華齡場","category":"parking","facilityType":"offstreet-parking","sourceUpdatedAt":"2026-07-20T06:01:00.530Z","carCapacity":15},"geometry":{"type":"Point","coordinates":[121.5192302,25.087115]}},{"type":"Feature","properties":{"id":"405134cd7446744ba1417172","name":"臺北表演藝術中心停車場","category":"parking","facilityType":"offstreet-parking","sourceUpdatedAt":"2026-07-20T06:01:00.530Z","carCapacity":170},"geometry":{"type":"Point","coordinates":[121.5242069,25.0851405]}},{"type":"Feature","properties":{"id":"1b9eea1763a2ccd2bd5d79eb","name":"社子大橋堤外平面停車場","category":"parking","facilityType":"offstreet-parking","sourceUpdatedAt":"2026-07-20T06:01:00.530Z","carCapacity":44},"geometry":{"type":"Point","coordinates":[121.4943413,25.1112869]}},{"type":"Feature","properties":{"id":"7cdb5ebb57f0b704e2297f6b","name":"叭叭房福國停車場","category":"parking","facilityType":"offstreet-parking","sourceUpdatedAt":"2026-07-20T06:01:00.530Z","carCapacity":22},"geometry":{"type":"Point","coordinates":[121.524823,25.1011241]}},{"type":"Feature","properties":{"id":"7671baf3d56f02f9a49d009f","name":"Times 天母西路第3","category":"parking","facilityType":"offstreet-parking","sourceUpdatedAt":"2026-07-20T06:01:00.530Z","carCapacity":100},"geometry":{"type":"Point","coordinates":[121.52619,25.117873]}},{"type":"Feature","properties":{"id":"89badd5dab39f625f0f696cc","name":"Times士林福德路第2","category":"parking","facilityType":"offstreet-parking","sourceUpdatedAt":"2026-07-20T06:01:00.530Z","carCapacity":8},"geometry":{"type":"Point","coordinates":[121.5240226,25.0919629]}},{"type":"Feature","properties":{"id":"1c7301a88ca01536c9ce8418","name":"陽光士林669-22停車場","category":"parking","facilityType":"offstreet-parking","sourceUpdatedAt":"2026-07-20T06:01:00.530Z","carCapacity":49},"geometry":{"type":"Point","coordinates":[121.5230407,25.0916242]}},{"type":"Feature","properties":{"id":"c8135a9955e84e0a8618227d","name":"Times士林福德路第3","category":"parking","facilityType":"offstreet-parking","sourceUpdatedAt":"2026-07-20T06:01:00.530Z","carCapacity":11},"geometry":{"type":"Point","coordinates":[121.523699,25.0921204]}},{"type":"Feature","properties":{"id":"55a59e82f713fb5ed2f2bfe3","name":"USPACE天母棒球場德行東路車位","category":"parking","facilityType":"offstreet-parking","sourceUpdatedAt":"2026-07-20T06:01:00.530Z","carCapacity":1},"geometry":{"type":"Point","coordinates":[121.5358926,25.1122325]}},{"type":"Feature","properties":{"id":"3cf48e4e27fc8d7fecf08eb7","name":"Times文林路第2","category":"parking","facilityType":"offstreet-parking","sourceUpdatedAt":"2026-07-20T06:01:00.530Z","carCapacity":2},"geometry":{"type":"Point","coordinates":[121.5263744,25.0915653]}},{"type":"Feature","properties":{"id":"b24dad43f55732db1e042fd2","name":"USPACE天母棒球場鄰近車位","category":"parking","facilityType":"offstreet-parking","sourceUpdatedAt":"2026-07-20T06:01:00.530Z","carCapacity":1},"geometry":{"type":"Point","coordinates":[121.535917,25.112986]}},{"type":"Feature","properties":{"id":"71ab61e27bc4a86f7b401a31","name":"叭叭房雙溪停車場","category":"parking","facilityType":"offstreet-parking","sourceUpdatedAt":"2026-07-20T06:01:00.530Z","carCapacity":46},"geometry":{"type":"Point","coordinates":[121.524725,25.1008066]}},{"type":"Feature","properties":{"id":"27d35d3c15a644938055a377","name":"叭叭房雙溪一停車場","category":"parking","facilityType":"offstreet-parking","sourceUpdatedAt":"2026-07-20T06:01:00.530Z","carCapacity":14},"geometry":{"type":"Point","coordinates":[121.5244008,25.1007519]}},{"type":"Feature","properties":{"id":"89260f377f5d5abc52433358","name":"長揚停車場中山二站","category":"parking","facilityType":"offstreet-parking","sourceUpdatedAt":"2026-07-20T06:01:00.530Z","carCapacity":6},"geometry":{"type":"Point","coordinates":[121.5241934,25.1068519]}},{"type":"Feature","properties":{"id":"0d8fc34fbfa22c858195ca6f","name":"叭叭房雙溪二停車場","category":"parking","facilityType":"offstreet-parking","sourceUpdatedAt":"2026-07-20T06:01:00.530Z","carCapacity":14},"geometry":{"type":"Point","coordinates":[121.5256948,25.1008508]}},{"type":"Feature","properties":{"id":"8ad88d4314b75da3a2522dae","name":"陽光士林669-23停車場","category":"parking","facilityType":"offstreet-parking","sourceUpdatedAt":"2026-07-20T06:01:00.530Z","carCapacity":49},"geometry":{"type":"Point","coordinates":[121.5231024,25.0919522]}},{"type":"Feature","properties":{"id":"8730eacfa2318f2f051d4690","name":"Times基河路第7","category":"parking","facilityType":"offstreet-parking","sourceUpdatedAt":"2026-07-20T06:01:00.530Z","carCapacity":45},"geometry":{"type":"Point","coordinates":[121.5186497,25.0943822]}},{"type":"Feature","properties":{"id":"b61ba06677c109783f7c269a","name":"台北市公有士林市場停車場","category":"parking","facilityType":"offstreet-parking","sourceUpdatedAt":"2026-07-20T06:01:00.530Z","carCapacity":46},"geometry":{"type":"Point","coordinates":[121.5242438,25.0878888]}},{"type":"Feature","properties":{"id":"fc36c5d86fca51672e857271","name":"嘟嘟房天母北站停車場","category":"parking","facilityType":"offstreet-parking","sourceUpdatedAt":"2026-07-20T06:01:00.530Z","carCapacity":10},"geometry":{"type":"Point","coordinates":[121.5268994,25.1221838]}},{"type":"Feature","properties":{"id":"9ba3862c6d8966c6bd25fd1f","name":"宏達經營管理顧問有限公司延平北停車場","category":"parking","facilityType":"offstreet-parking","sourceUpdatedAt":"2026-07-20T06:01:00.530Z","carCapacity":46},"geometry":{"type":"Point","coordinates":[121.5110173,25.0802271]}},{"type":"Feature","properties":{"id":"25134189f68e0d5376cc6f6b","name":"花園官邸停車場","category":"parking","facilityType":"offstreet-parking","sourceUpdatedAt":"2026-07-20T06:01:00.530Z","carCapacity":50},"geometry":{"type":"Point","coordinates":[121.5274255,25.0915464]}},{"type":"Feature","properties":{"id":"ff35fe04ecd7373e226aac49","name":"168停車聯盟-士林場","category":"parking","facilityType":"offstreet-parking","sourceUpdatedAt":"2026-07-20T06:01:00.530Z","carCapacity":69},"geometry":{"type":"Point","coordinates":[121.5324302,25.1117258]}},{"type":"Feature","properties":{"id":"6d7998449fec66d95cabf82c","name":"百齡橋堤外足球場停車場(一)","category":"parking","facilityType":"offstreet-parking","sourceUpdatedAt":"2026-07-20T06:01:00.530Z","carCapacity":148},"geometry":{"type":"Point","coordinates":[121.5146364,25.090273]}},{"type":"Feature","properties":{"id":"63f30e4782251e04d19762ca","name":"百齡橋堤外足球場停車場(二)","category":"parking","facilityType":"offstreet-parking","sourceUpdatedAt":"2026-07-20T06:01:00.530Z","carCapacity":117},"geometry":{"type":"Point","coordinates":[121.5149678,25.0877255]}},{"type":"Feature","properties":{"id":"1ee0095698a50c30f4135367","name":"社子市場停車場","category":"parking","facilityType":"offstreet-parking","sourceUpdatedAt":"2026-07-20T06:01:00.530Z","carCapacity":49},"geometry":{"type":"Point","coordinates":[121.50864,25.0875129]}},{"type":"Feature","properties":{"id":"9f186a69b55c041d51ecb426","name":"日僑停車場","category":"parking","facilityType":"offstreet-parking","sourceUpdatedAt":"2026-07-20T06:01:00.530Z","carCapacity":62},"geometry":{"type":"Point","coordinates":[121.5269137,25.1172289]}},{"type":"Feature","properties":{"id":"b8d5dbcaa1656c66bb5f1608","name":"台灣聯通士林官邸停車場","category":"parking","facilityType":"offstreet-parking","sourceUpdatedAt":"2026-07-20T06:01:00.530Z","carCapacity":78},"geometry":{"type":"Point","coordinates":[121.5315602,25.0957056]}},{"type":"Feature","properties":{"id":"890d07708acf0e3a3c8e4e3c","name":"社子延平停車場","category":"parking","facilityType":"offstreet-parking","sourceUpdatedAt":"2026-07-20T06:01:00.530Z","carCapacity":12},"geometry":{"type":"Point","coordinates":[121.508936,25.0871742]}},{"type":"Feature","properties":{"id":"7eedbe67fea9c60be16a4d25","name":"博客停車場-士林格致場","category":"parking","facilityType":"offstreet-parking","sourceUpdatedAt":"2026-07-20T06:01:00.530Z","carCapacity":14},"geometry":{"type":"Point","coordinates":[121.5460664,25.1360762]}},{"type":"Feature","properties":{"id":"5c50d6954e0e62e6d7fbddef","name":"華榮社宅場","category":"parking","facilityType":"offstreet-parking","sourceUpdatedAt":"2026-07-20T06:01:00.530Z","carCapacity":114},"geometry":{"type":"Point","coordinates":[121.52257,25.096498]}},{"type":"Feature","properties":{"id":"0f48669bc53968a2f2381dad","name":"鴻藶有限公司天母停車場","category":"parking","facilityType":"offstreet-parking","sourceUpdatedAt":"2026-07-20T06:01:00.530Z","carCapacity":20},"geometry":{"type":"Point","coordinates":[121.52701,25.11616]}},{"type":"Feature","properties":{"id":"b40322a867a0d545f501815f","name":"168停車聯盟-三玉場","category":"parking","facilityType":"offstreet-parking","sourceUpdatedAt":"2026-07-20T06:01:00.530Z","carCapacity":28},"geometry":{"type":"Point","coordinates":[121.52598,25.11009]}},{"type":"Feature","properties":{"id":"91c2195de9a2339048181ef5","name":"至誠公園鄰近停車場","category":"parking","facilityType":"offstreet-parking","sourceUpdatedAt":"2026-07-20T06:01:00.530Z","carCapacity":2},"geometry":{"type":"Point","coordinates":[121.53735,25.101028]}},{"type":"Feature","properties":{"id":"2281540cd3ed74cd567c6144","name":"CAAM承德168","category":"parking","facilityType":"offstreet-parking","sourceUpdatedAt":"2026-07-20T06:01:00.530Z","carCapacity":17},"geometry":{"type":"Point","coordinates":[121.52298,25.085671]}},{"type":"Feature","properties":{"id":"a0f9bfc33b52509c7720fcef","name":"Times中山北路六段第2","category":"parking","facilityType":"offstreet-parking","sourceUpdatedAt":"2026-07-20T06:01:00.530Z","carCapacity":13},"geometry":{"type":"Point","coordinates":[121.52661,25.113342]}},{"type":"Feature","properties":{"id":"604538e158e1a9ac1734f07a","name":"叭叭房友誼大樓地下停車場","category":"parking","facilityType":"offstreet-parking","sourceUpdatedAt":"2026-07-20T06:01:00.530Z","carCapacity":95},"geometry":{"type":"Point","coordinates":[121.52081,25.095897]}},{"type":"Feature","properties":{"id":"ba0e970e3ad870343b3a89ab","name":"永平社會住宅地下停車場","category":"parking","facilityType":"offstreet-parking","sourceUpdatedAt":"2026-07-20T06:01:00.530Z","carCapacity":61},"geometry":{"type":"Point","coordinates":[121.5033,25.088993]}},{"type":"Feature","properties":{"id":"6f15721db74c2cb97f57ad9e","name":"Times中山北路六段","category":"parking","facilityType":"offstreet-parking","sourceUpdatedAt":"2026-07-20T06:01:00.530Z","carCapacity":20},"geometry":{"type":"Point","coordinates":[121.52609,25.110709]}},{"type":"Feature","properties":{"id":"ccb3b3c5b9ca433e4797550a","name":"中國文化大學曉峯館停車場","category":"parking","facilityType":"offstreet-parking","sourceUpdatedAt":"2026-07-20T06:01:00.530Z","carCapacity":8},"geometry":{"type":"Point","coordinates":[121.54107,25.137206]}},{"type":"Feature","properties":{"id":"4fb68b178b29ba6823a87a23","name":"中國文化大學大孝館停車場","category":"parking","facilityType":"offstreet-parking","sourceUpdatedAt":"2026-07-20T06:01:00.530Z","carCapacity":6},"geometry":{"type":"Point","coordinates":[121.53969,25.134649]}}]}
