{"type":"FeatureCollection","features":[{"type":"Feature","properties":{"name":"捷運景安站","category":"bus"},"geometry":{"type":"Point","coordinates":[121.504723,24.992843]}},{"type":"Feature","properties":{"name":"雙和醫院(圓通路)","category":"bus"},"geometry":{"type":"Point","coordinates":[121.494221,24.9917]}},{"type":"Feature","properties":{"name":"積穗(員山路)","category":"bus"},"geometry":{"type":"Point","coordinates":[121.479635,25.00686]}},{"type":"Feature","properties":{"name":"中和站","category":"bus"},"geometry":{"type":"Point","coordinates":[121.490687,24.990459]}},{"type":"Feature","properties":{"name":"中和國民運動中心","category":"bus"},"geometry":{"type":"Point","coordinates":[121.4887,24.994432]}},{"type":"Feature","properties":{"name":"中和國民運動中心","category":"bus"},"geometry":{"type":"Point","coordinates":[121.488434,24.994093]}},{"type":"Feature","properties":{"name":"錦和高中","category":"bus"},"geometry":{"type":"Point","coordinates":[121.490745,24.992417]}},{"type":"Feature","properties":{"name":"連城中和路口","category":"bus"},"geometry":{"type":"Point","coordinates":[121.498554,25.001978]}},{"type":"Feature","properties":{"name":"連城中和路口","category":"bus"},"geometry":{"type":"Point","coordinates":[121.498749,25.002187]}},{"type":"Feature","properties":{"name":"連城路口","category":"bus"},"geometry":{"type":"Point","coordinates":[121.4861964,24.994824]}},{"type":"Feature","properties":{"name":"捷運景安站","category":"bus"},"geometry":{"type":"Point","coordinates":[121.505277,24.994329]}},{"type":"Feature","properties":{"name":"雙和醫院","category":"bus"},"geometry":{"type":"Point","coordinates":[121.4940855,24.993784]}},{"type":"Feature","properties":{"name":"圓通路口","category":"bus"},"geometry":{"type":"Point","coordinates":[121.497652,24.993563]}},{"type":"Feature","properties":{"name":"中興街口","category":"bus"},"geometry":{"type":"Point","coordinates":[121.500082,24.99346]}},{"type":"Feature","properties":{"name":"中正里一","category":"bus"},"geometry":{"type":"Point","coordinates":[121.4870797,24.994208]}},{"type":"Feature","properties":{"name":"中興街口","category":"bus"},"geometry":{"type":"Point","coordinates":[121.500205,24.993819]}},{"type":"Feature","properties":{"name":"中正板南路口","category":"bus"},"geometry":{"type":"Point","coordinates":[121.497116,24.99394]}},{"type":"Feature","properties":{"name":"錦和路口","category":"bus"},"geometry":{"type":"Point","coordinates":[121.490728,24.994276]}},{"type":"Feature","properties":{"name":"中正中山路口","category":"bus"},"geometry":{"type":"Point","coordinates":[121.483946,25.006489]}},{"type":"Feature","properties":{"name":"富貴賞社區","category":"bus"},"geometry":{"type":"Point","coordinates":[121.47987,25.010227]}},{"type":"Feature","properties":{"name":"秀山國小","category":"bus"},"geometry":{"type":"Point","coordinates":[121.521882,24.994341]}},{"type":"Feature","properties":{"name":"秀山站","category":"bus"},"geometry":{"type":"Point","coordinates":[121.520171,24.994797]}},{"type":"Feature","properties":{"name":"捷運景安站(景平路)","category":"bus"},"geometry":{"type":"Point","coordinates":[121.50421,24.99367]}},{"type":"Feature","properties":{"name":"捷運景安站","category":"bus"},"geometry":{"type":"Point","coordinates":[121.505201,24.994596]}},{"type":"Feature","properties":{"name":"宜安吉立","category":"bus"},"geometry":{"type":"Point","coordinates":[121.51244,24.99634]}},{"type":"Feature","properties":{"name":"壽德街","category":"bus"},"geometry":{"type":"Point","coordinates":[121.466047,24.995031]}},{"type":"Feature","properties":{"name":"壽德里活動中心","category":"bus"},"geometry":{"type":"Point","coordinates":[121.4650036,24.995994]}},{"type":"Feature","properties":{"name":"華福市場","category":"bus"},"geometry":{"type":"Point","coordinates":[121.4666933,24.99657]}},{"type":"Feature","properties":{"name":"民享里","category":"bus"},"geometry":{"type":"Point","coordinates":[121.474417,25.001437]}},{"type":"Feature","properties":{"name":"民享市場","category":"bus"},"geometry":{"type":"Point","coordinates":[121.4740245,25.003814]}},{"type":"Feature","properties":{"name":"民享街口","category":"bus"},"geometry":{"type":"Point","coordinates":[121.47394,25.005686]}},{"type":"Feature","properties":{"name":"民富郵局","category":"bus"},"geometry":{"type":"Point","coordinates":[121.4767679,25.006862]}},{"type":"Feature","properties":{"name":"員富里","category":"bus"},"geometry":{"type":"Point","coordinates":[121.4782185,25.009322]}},{"type":"Feature","properties":{"name":"民樂郵局","category":"bus"},"geometry":{"type":"Point","coordinates":[121.4828339,25.001118]}},{"type":"Feature","properties":{"name":"新生街","category":"bus"},"geometry":{"type":"Point","coordinates":[121.4837224,24.999833]}},{"type":"Feature","properties":{"name":"二八張","category":"bus"},"geometry":{"type":"Point","coordinates":[121.4837436,24.996823]}},{"type":"Feature","properties":{"name":"民樂郵局","category":"bus"},"geometry":{"type":"Point","coordinates":[121.482484,25.001231]}},{"type":"Feature","properties":{"name":"民富郵局","category":"bus"},"geometry":{"type":"Point","coordinates":[121.476542,25.007169]}},{"type":"Feature","properties":{"name":"民享街口","category":"bus"},"geometry":{"type":"Point","coordinates":[121.4738415,25.005593]}},{"type":"Feature","properties":{"name":"民享市場","category":"bus"},"geometry":{"type":"Point","coordinates":[121.473926,25.003811]}},{"type":"Feature","properties":{"name":"民享里","category":"bus"},"geometry":{"type":"Point","coordinates":[121.4743337,25.00129]}},{"type":"Feature","properties":{"name":"民生里","category":"bus"},"geometry":{"type":"Point","coordinates":[121.469202,25.003708]}},{"type":"Feature","properties":{"name":"華福市場","category":"bus"},"geometry":{"type":"Point","coordinates":[121.466612,24.996647]}},{"type":"Feature","properties":{"name":"壽德街","category":"bus"},"geometry":{"type":"Point","coordinates":[121.4659521,24.995001]}},{"type":"Feature","properties":{"name":"中和農會民享分部","category":"bus"},"geometry":{"type":"Point","coordinates":[121.4723162,25.001946]}},{"type":"Feature","properties":{"name":"土地公廟","category":"bus"},"geometry":{"type":"Point","coordinates":[121.482143,24.985716]}},{"type":"Feature","properties":{"name":"林祖厝","category":"bus"},"geometry":{"type":"Point","coordinates":[121.4811616,24.987641]}},{"type":"Feature","properties":{"name":"員山高架橋","category":"bus"},"geometry":{"type":"Point","coordinates":[121.4820864,24.989899]}},{"type":"Feature","properties":{"name":"防汛站","category":"bus"},"geometry":{"type":"Point","coordinates":[121.4809043,24.993828]}},{"type":"Feature","properties":{"name":"錦和公園","category":"bus"},"geometry":{"type":"Point","coordinates":[121.4878283,24.993476]}},{"type":"Feature","properties":{"name":"安邦街口","category":"bus"},"geometry":{"type":"Point","coordinates":[121.497641,24.995294]}},{"type":"Feature","properties":{"name":"宜安吉立","category":"bus"},"geometry":{"type":"Point","coordinates":[121.51246,24.99621]}},{"type":"Feature","properties":{"name":"基泰和里","category":"bus"},"geometry":{"type":"Point","coordinates":[121.522809,24.992498]}},{"type":"Feature","properties":{"name":"尖山腳","category":"bus"},"geometry":{"type":"Point","coordinates":[121.52296,24.99076]}},{"type":"Feature","properties":{"name":"中安街","category":"bus"},"geometry":{"type":"Point","coordinates":[121.5109448,25.00001]}},{"type":"Feature","properties":{"name":"中和新村","category":"bus"},"geometry":{"type":"Point","coordinates":[121.4912431,24.989814]}},{"type":"Feature","properties":{"name":"速配佳庭","category":"bus"},"geometry":{"type":"Point","coordinates":[121.48858,24.98918]}},{"type":"Feature","properties":{"name":"清和社","category":"bus"},"geometry":{"type":"Point","coordinates":[121.487062,24.98827]}},{"type":"Feature","properties":{"name":"水源路口","category":"bus"},"geometry":{"type":"Point","coordinates":[121.5066055,25.003781]}},{"type":"Feature","properties":{"name":"國際科學園區","category":"bus"},"geometry":{"type":"Point","coordinates":[121.486006,25.00868537]}},{"type":"Feature","properties":{"name":"家美工業區","category":"bus"},"geometry":{"type":"Point","coordinates":[121.493912,25.002028]}},{"type":"Feature","properties":{"name":"捷運景安站(景平路)","category":"bus"},"geometry":{"type":"Point","coordinates":[121.504297,24.993354]}},{"type":"Feature","properties":{"name":"家美工業區","category":"bus"},"geometry":{"type":"Point","coordinates":[121.493465,25.00229]}},{"type":"Feature","properties":{"name":"第一戶政事務所","category":"bus"},"geometry":{"type":"Point","coordinates":[121.504085,24.990253]}},{"type":"Feature","properties":{"name":"第一戶政事務所","category":"bus"},"geometry":{"type":"Point","coordinates":[121.5042074,24.99011]}},{"type":"Feature","properties":{"name":"臺科大華夏校區","category":"bus"},"geometry":{"type":"Point","coordinates":[121.5083682,24.98282]}},{"type":"Feature","properties":{"name":"華新站","category":"bus"},"geometry":{"type":"Point","coordinates":[121.506383,24.979406]}},{"type":"Feature","properties":{"name":"飛駝國宅","category":"bus"},"geometry":{"type":"Point","coordinates":[121.5053746,24.983019]}},{"type":"Feature","properties":{"name":"登山口","category":"bus"},"geometry":{"type":"Point","coordinates":[121.50119,24.97642]}},{"type":"Feature","properties":{"name":"觀音寺","category":"bus"},"geometry":{"type":"Point","coordinates":[121.5005878,24.9731]}},{"type":"Feature","properties":{"name":"竟南宮","category":"bus"},"geometry":{"type":"Point","coordinates":[121.498629,24.973586]}},{"type":"Feature","properties":{"name":"烘爐地","category":"bus"},"geometry":{"type":"Point","coordinates":[121.499336,24.972209]}},{"type":"Feature","properties":{"name":"竟南宮","category":"bus"},"geometry":{"type":"Point","coordinates":[121.498603,24.973447]}},{"type":"Feature","properties":{"name":"鴛鴦亭","category":"bus"},"geometry":{"type":"Point","coordinates":[121.5012929,24.973646]}},{"type":"Feature","properties":{"name":"埤尾站","category":"bus"},"geometry":{"type":"Point","coordinates":[121.5004593,24.977792]}},{"type":"Feature","properties":{"name":"竹林中學","category":"bus"},"geometry":{"type":"Point","coordinates":[121.5066096,24.981758]}},{"type":"Feature","properties":{"name":"華新站","category":"bus"},"geometry":{"type":"Point","coordinates":[121.5062895,24.979354]}},{"type":"Feature","properties":{"name":"臺科大華夏校區","category":"bus"},"geometry":{"type":"Point","coordinates":[121.507652,24.982289]}}]}
