{"type":"FeatureCollection","features":[{"type":"Feature","properties":{"id":"6779a0ef53636ed8a681d783","name":"新北市立圖書館土城柑林埤圖書閱覽室","category":"library","facilityType":"public-library","sourceUpdatedAt":"2026-07-21T02:59:00.336Z"},"geometry":{"type":"Point","coordinates":[121.45197,24.987034]}},{"type":"Feature","properties":{"id":"fdab61e76bc5e0bc43bde086","name":"新北市立圖書館土城祖田圖書閱覽室","category":"library","facilityType":"public-library","sourceUpdatedAt":"2026-07-21T02:59:00.336Z"},"geometry":{"type":"Point","coordinates":[121.411837,24.952716]}},{"type":"Feature","properties":{"id":"9cf6ed1522c61a6c88e28d43","name":"新北市立圖書館土城清水圖書閱覽室","category":"library","facilityType":"public-library","sourceUpdatedAt":"2026-07-21T02:59:00.336Z"},"geometry":{"type":"Point","coordinates":[121.461454,24.983454]}},{"type":"Feature","properties":{"id":"05666b4493c80bccf55e6e29","name":"新北市立圖書館土城分館","category":"library","facilityType":"public-library","sourceUpdatedAt":"2026-07-21T02:59:00.336Z"},"geometry":{"type":"Point","coordinates":[121.443,24.9751]}},{"type":"Feature","properties":{"id":"0b01b81f81750f06e383b328","name":"新北市立圖書館土城親子分館","category":"library","facilityType":"public-library","sourceUpdatedAt":"2026-07-21T02:59:00.336Z"},"geometry":{"type":"Point","coordinates":[121.4154,24.9581]}}]}
