{"type":"FeatureCollection","features":[{"type":"Feature","properties":{"id":"97739efeb3f400853cbd041d","name":"市立土城國小","category":"school","sourceUpdatedAt":"2026-07-21T02:58:41.233Z","facilityType":"school-campus","schoolLevels":["elementary"],"officialCodes":["014646"]},"geometry":{"type":"Point","coordinates":[121.4419348,24.9723826]}},{"type":"Feature","properties":{"id":"11648bd878b953a9be22e0db","name":"市立清水國小","category":"school","sourceUpdatedAt":"2026-07-21T02:58:41.233Z","facilityType":"school-campus","schoolLevels":["elementary"],"officialCodes":["014647"]},"geometry":{"type":"Point","coordinates":[121.4615083,24.9844019]}},{"type":"Feature","properties":{"id":"c689a05402e60bc9902b2f45","name":"市立頂埔國小","category":"school","sourceUpdatedAt":"2026-07-21T02:58:41.233Z","facilityType":"school-campus","schoolLevels":["elementary"],"officialCodes":["014648"]},"geometry":{"type":"Point","coordinates":[121.4143318,24.9562011]}},{"type":"Feature","properties":{"id":"8e06606aa5f0492b0b6501e1","name":"市立廣福國小","category":"school","sourceUpdatedAt":"2026-07-21T02:58:41.233Z","facilityType":"school-campus","schoolLevels":["elementary"],"officialCodes":["014649"]},"geometry":{"type":"Point","coordinates":[121.4548958,24.9869528]}},{"type":"Feature","properties":{"id":"3d7b9ab90a529e5cf9393d6a","name":"市立樂利國小","category":"school","sourceUpdatedAt":"2026-07-21T02:58:41.233Z","facilityType":"school-campus","schoolLevels":["elementary"],"officialCodes":["014773"]},"geometry":{"type":"Point","coordinates":[121.4475594,24.9856018]}},{"type":"Feature","properties":{"id":"29d81a14e9749947b1faa901","name":"市立安和國小","category":"school","sourceUpdatedAt":"2026-07-21T02:58:41.233Z","facilityType":"school-campus","schoolLevels":["elementary"],"officialCodes":["014774"]},"geometry":{"type":"Point","coordinates":[121.4647744,24.9888072]}},{"type":"Feature","properties":{"id":"ce42e120d8f0fa0f1d2ce698","name":"市立土城國中","category":"school","sourceUpdatedAt":"2026-07-21T02:58:41.233Z","facilityType":"school-campus","schoolLevels":["junior"],"officialCodes":["014524"]},"geometry":{"type":"Point","coordinates":[121.4301713,24.9624154]}},{"type":"Feature","properties":{"id":"d1a8c9a964e3f2bf3705c7b1","name":"市立中正國中","category":"school","sourceUpdatedAt":"2026-07-21T02:58:41.233Z","facilityType":"school-campus","schoolLevels":["junior"],"officialCodes":["014555"]},"geometry":{"type":"Point","coordinates":[121.456842,24.9834563]}},{"type":"Feature","properties":{"id":"9ffa268f750cb0c5bec3c6e4","name":"新北市裕德高級中等學校","category":"school","sourceUpdatedAt":"2026-07-21T02:58:41.233Z","facilityType":"school-campus","schoolLevels":["senior"],"officialCodes":["11307"]},"geometry":{"type":"Point","coordinates":[121.4395846,24.9829771]}},{"type":"Feature","properties":{"id":"566593147a9d546c56c92cb1","name":"新北市福瑞斯特高中","category":"school","sourceUpdatedAt":"2026-07-21T02:58:41.233Z","facilityType":"school-campus","schoolLevels":["senior"],"officialCodes":["11314"]},"geometry":{"type":"Point","coordinates":[121.4374377,24.9756257]}},{"type":"Feature","properties":{"id":"364c418af2631bac31419ee6","name":"市立新北高工","category":"school","sourceUpdatedAt":"2026-07-21T02:58:41.233Z","facilityType":"school-campus","schoolLevels":["senior"],"officialCodes":["13433"]},"geometry":{"type":"Point","coordinates":[121.4503803,24.9833075]}},{"type":"Feature","properties":{"id":"84e9205caa82f9a5b31d86c7","name":"市立清水高中","category":"school","sourceUpdatedAt":"2026-07-21T02:58:41.233Z","facilityType":"school-campus","schoolLevels":["senior"],"officialCodes":["14356"]},"geometry":{"type":"Point","coordinates":[121.4653115,24.9820135]}}]}
