{"type":"FeatureCollection","features":[{"type":"Feature","properties":{"id":"472cf6c27a46ef09dd69dcff","name":"市立萬里國小","category":"school","sourceUpdatedAt":"2026-07-21T02:58:41.233Z","facilityType":"school-campus","schoolLevels":["elementary"],"officialCodes":["014658"]},"geometry":{"type":"Point","coordinates":[121.6881889,25.1761736]}},{"type":"Feature","properties":{"id":"1614fc2ca1995c2d28d305e8","name":"市立野柳國小","category":"school","sourceUpdatedAt":"2026-07-21T02:58:41.233Z","facilityType":"school-campus","schoolLevels":["elementary"],"officialCodes":["014659"]},"geometry":{"type":"Point","coordinates":[121.6894468,25.2056046]}},{"type":"Feature","properties":{"id":"f73a417afadeb4573d51f502","name":"市立大鵬國小","category":"school","sourceUpdatedAt":"2026-07-21T02:58:41.233Z","facilityType":"school-campus","schoolLevels":["elementary"],"officialCodes":["014660"]},"geometry":{"type":"Point","coordinates":[121.6509855,25.2087638]}},{"type":"Feature","properties":{"id":"d1aefbfd8667587549c264af","name":"市立大坪國小","category":"school","sourceUpdatedAt":"2026-07-21T02:58:41.233Z","facilityType":"school-campus","schoolLevels":["elementary"],"officialCodes":["014661"]},"geometry":{"type":"Point","coordinates":[121.6384916,25.1675597]}},{"type":"Feature","properties":{"id":"86d7dba16729290e61e0f84f","name":"市立崁腳國小","category":"school","sourceUpdatedAt":"2026-07-21T02:58:41.233Z","facilityType":"school-campus","schoolLevels":["elementary"],"officialCodes":["014662"]},"geometry":{"type":"Point","coordinates":[121.6496936,25.16059]}},{"type":"Feature","properties":{"id":"f50aa2c8080984d0b02b394e","name":"市立萬里國中","category":"school","sourceUpdatedAt":"2026-07-21T02:58:41.233Z","facilityType":"school-campus","schoolLevels":["junior"],"officialCodes":["014539"]},"geometry":{"type":"Point","coordinates":[121.6944181,25.1777916]}},{"type":"Feature","properties":{"id":"79c8c5aae7ae0911d4f4c7dc","name":"私立中華商海","category":"school","sourceUpdatedAt":"2026-07-21T02:58:41.233Z","facilityType":"school-campus","schoolLevels":["senior"],"officialCodes":["11432"]},"geometry":{"type":"Point","coordinates":[121.6853529,25.1778271]}}]}
