{"type":"FeatureCollection","features":[{"type":"Feature","properties":{"id":"7b09e74da7aee282cce4398f","name":"臺北市立圖書館松山分館(臨時替代服務處)","category":"library","facilityType":"public-library","sourceUpdatedAt":"2026-07-21T02:59:00.336Z"},"geometry":{"type":"Point","coordinates":[121.578684,25.04854]}},{"type":"Feature","properties":{"id":"9d13cd4449702f5063d4a666","name":"臺北市立圖書館永春分館","category":"library","facilityType":"public-library","sourceUpdatedAt":"2026-07-21T02:59:00.336Z"},"geometry":{"type":"Point","coordinates":[121.5773,25.0431]}},{"type":"Feature","properties":{"id":"bd14f1da00fbea3a3a45c658","name":"臺北市立圖書館三興分館","category":"library","facilityType":"public-library","sourceUpdatedAt":"2026-07-21T02:59:00.336Z"},"geometry":{"type":"Point","coordinates":[121.5613,25.029]}},{"type":"Feature","properties":{"id":"545679230d3ceb7a2e08521e","name":"臺北市立圖書館六合分館","category":"library","facilityType":"public-library","sourceUpdatedAt":"2026-07-21T02:59:00.336Z"},"geometry":{"type":"Point","coordinates":[121.5688,25.0244]}},{"type":"Feature","properties":{"id":"072839911650bf66700ac8b9","name":"臺北市立圖書館廣慈分館","category":"library","facilityType":"public-library","sourceUpdatedAt":"2026-07-21T02:59:00.336Z"},"geometry":{"type":"Point","coordinates":[121.5819,25.03737]}}]}
