{"type":"FeatureCollection","features":[{"type":"Feature","properties":{"name":"清水","category":"bus"},"geometry":{"type":"Point","coordinates":[121.6293144,25.235648]}},{"type":"Feature","properties":{"name":"清水路41巷口","category":"bus"},"geometry":{"type":"Point","coordinates":[121.629616,25.232264]}},{"type":"Feature","properties":{"name":"磺溪橋","category":"bus"},"geometry":{"type":"Point","coordinates":[121.6297905,25.229738]}},{"type":"Feature","properties":{"name":"加油站","category":"bus"},"geometry":{"type":"Point","coordinates":[121.6335164,25.225146]}},{"type":"Feature","properties":{"name":"金山中學","category":"bus"},"geometry":{"type":"Point","coordinates":[121.6352853,25.224013]}},{"type":"Feature","properties":{"name":"金山","category":"bus"},"geometry":{"type":"Point","coordinates":[121.63897,25.22017]}},{"type":"Feature","properties":{"name":"金山","category":"bus"},"geometry":{"type":"Point","coordinates":[121.639219,25.220074]}},{"type":"Feature","properties":{"name":"金山中學","category":"bus"},"geometry":{"type":"Point","coordinates":[121.6353948,25.224094]}},{"type":"Feature","properties":{"name":"磺溪橋","category":"bus"},"geometry":{"type":"Point","coordinates":[121.6300657,25.229859]}},{"type":"Feature","properties":{"name":"清水路41巷口","category":"bus"},"geometry":{"type":"Point","coordinates":[121.629862,25.232553]}},{"type":"Feature","properties":{"name":"清水","category":"bus"},"geometry":{"type":"Point","coordinates":[121.629534,25.235586]}},{"type":"Feature","properties":{"name":"磺港大橋","category":"bus"},"geometry":{"type":"Point","coordinates":[121.644198,25.227659]}},{"type":"Feature","properties":{"name":"磺港大橋","category":"bus"},"geometry":{"type":"Point","coordinates":[121.644101,25.227707]}},{"type":"Feature","properties":{"name":"龜子山","category":"bus"},"geometry":{"type":"Point","coordinates":[121.636921,25.217548]}},{"type":"Feature","properties":{"name":"田心子","category":"bus"},"geometry":{"type":"Point","coordinates":[121.6329998,25.219604]}},{"type":"Feature","properties":{"name":"田心子","category":"bus"},"geometry":{"type":"Point","coordinates":[121.632035,25.220558]}},{"type":"Feature","properties":{"name":"龜子山","category":"bus"},"geometry":{"type":"Point","coordinates":[121.636484,25.217213]}},{"type":"Feature","properties":{"name":"自強路口","category":"bus"},"geometry":{"type":"Point","coordinates":[121.642529,25.216311]}},{"type":"Feature","properties":{"name":"獅頭山公園(老街溫泉區)","category":"bus"},"geometry":{"type":"Point","coordinates":[121.6416901,25.219393]}},{"type":"Feature","properties":{"name":"中正路","category":"bus"},"geometry":{"type":"Point","coordinates":[121.6339627,25.221918]}},{"type":"Feature","properties":{"name":"中正路","category":"bus"},"geometry":{"type":"Point","coordinates":[121.6340338,25.221818]}},{"type":"Feature","properties":{"name":"獅頭山公園(老街溫泉區)","category":"bus"},"geometry":{"type":"Point","coordinates":[121.6419691,25.219393]}},{"type":"Feature","properties":{"name":"金山郵局","category":"bus"},"geometry":{"type":"Point","coordinates":[121.639965,25.218996]}},{"type":"Feature","properties":{"name":"下六股","category":"bus"},"geometry":{"type":"Point","coordinates":[121.626461,25.223496]}},{"type":"Feature","properties":{"name":"六股中路","category":"bus"},"geometry":{"type":"Point","coordinates":[121.6124008,25.222552]}},{"type":"Feature","properties":{"name":"臺大醫院金山分院","category":"bus"},"geometry":{"type":"Point","coordinates":[121.628784,25.219498]}},{"type":"Feature","properties":{"name":"金山分局","category":"bus"},"geometry":{"type":"Point","coordinates":[121.640865,25.220554]}},{"type":"Feature","properties":{"name":"磺港","category":"bus"},"geometry":{"type":"Point","coordinates":[121.649256,25.229251]}},{"type":"Feature","properties":{"name":"社寮","category":"bus"},"geometry":{"type":"Point","coordinates":[121.640237,25.22831]}},{"type":"Feature","properties":{"name":"金山分局","category":"bus"},"geometry":{"type":"Point","coordinates":[121.640996,25.220716]}},{"type":"Feature","properties":{"name":"葵扇湖","category":"bus"},"geometry":{"type":"Point","coordinates":[121.595639,25.228667]}},{"type":"Feature","properties":{"name":"三界聖德宮","category":"bus"},"geometry":{"type":"Point","coordinates":[121.62,25.230771]}},{"type":"Feature","properties":{"name":"重和里","category":"bus"},"geometry":{"type":"Point","coordinates":[121.603065,25.218953]}},{"type":"Feature","properties":{"name":"三界聖德宮","category":"bus"},"geometry":{"type":"Point","coordinates":[121.619933,25.231033]}},{"type":"Feature","properties":{"name":"葵扇湖","category":"bus"},"geometry":{"type":"Point","coordinates":[121.595653,25.228573]}},{"type":"Feature","properties":{"name":"重和里","category":"bus"},"geometry":{"type":"Point","coordinates":[121.602934,25.218911]}},{"type":"Feature","properties":{"name":"六股里潭子內","category":"bus"},"geometry":{"type":"Point","coordinates":[121.61441,25.226424]}},{"type":"Feature","properties":{"name":"下六股","category":"bus"},"geometry":{"type":"Point","coordinates":[121.626459,25.223432]}},{"type":"Feature","properties":{"name":"濆水伍天宮","category":"bus"},"geometry":{"type":"Point","coordinates":[121.623049,25.266765]}},{"type":"Feature","properties":{"name":"磺溪中橋","category":"bus"},"geometry":{"type":"Point","coordinates":[121.620298,25.221144]}},{"type":"Feature","properties":{"name":"三界里(7、8鄰)","category":"bus"},"geometry":{"type":"Point","coordinates":[121.60325,25.247583]}},{"type":"Feature","properties":{"name":"基督教平安園","category":"bus"},"geometry":{"type":"Point","coordinates":[121.616141,25.251585]}},{"type":"Feature","properties":{"name":"基督教平安園","category":"bus"},"geometry":{"type":"Point","coordinates":[121.616266,25.25172]}}]}
