{"type":"FeatureCollection","features":[{"type":"Feature","properties":{"id":"707483df2ad0007df459ebdf","name":"市立金山國小","category":"school","sourceUpdatedAt":"2026-07-21T02:58:41.233Z","facilityType":"school-campus","schoolLevels":["elementary"],"officialCodes":["014663"]},"geometry":{"type":"Point","coordinates":[121.6365193,25.2229626]}},{"type":"Feature","properties":{"id":"2adffc30c9f7c550575b92d6","name":"市立中角國小","category":"school","sourceUpdatedAt":"2026-07-21T02:58:41.233Z","facilityType":"school-campus","schoolLevels":["elementary"],"officialCodes":["014664"]},"geometry":{"type":"Point","coordinates":[121.6305841,25.2397546]}},{"type":"Feature","properties":{"id":"da891e44c10074988030aba2","name":"市立三和國小","category":"school","sourceUpdatedAt":"2026-07-21T02:58:41.233Z","facilityType":"school-campus","schoolLevels":["elementary"],"officialCodes":["014665"]},"geometry":{"type":"Point","coordinates":[121.6028891,25.2188904]}},{"type":"Feature","properties":{"id":"7ee874c84d9a083d0ea23ab9","name":"市立金美國小","category":"school","sourceUpdatedAt":"2026-07-21T02:58:41.233Z","facilityType":"school-campus","schoolLevels":["elementary"],"officialCodes":["014780"]},"geometry":{"type":"Point","coordinates":[121.6354741,25.2210391]}},{"type":"Feature","properties":{"id":"b17f86103b0449044332510b","name":"市立金山高中","category":"school","sourceUpdatedAt":"2026-07-21T02:58:41.233Z","facilityType":"school-campus","schoolLevels":["senior"],"officialCodes":["14338"]},"geometry":{"type":"Point","coordinates":[121.6369347,25.2246687]}}]}
