{"type":"FeatureCollection","features":[{"type":"Feature","properties":{"id":"effe969a88f0689bbd5f0c3d","name":"中山堂地下停車場","category":"parking","facilityType":"offstreet-parking","sourceUpdatedAt":"2026-07-21T02:58:29.534Z","carCapacity":441},"geometry":{"type":"Point","coordinates":[121.5105874,25.0440407]}},{"type":"Feature","properties":{"id":"06f77d58a7bb53ad5811acaf","name":"喜來登飯店停車場","category":"parking","facilityType":"offstreet-parking","sourceUpdatedAt":"2026-07-21T02:58:29.534Z","carCapacity":214},"geometry":{"type":"Point","coordinates":[121.5220494,25.0448482]}},{"type":"Feature","properties":{"id":"9fba5967b4ebc25439e510e9","name":"仰德大樓停車場","category":"parking","facilityType":"offstreet-parking","sourceUpdatedAt":"2026-07-21T02:58:29.534Z","carCapacity":115},"geometry":{"type":"Point","coordinates":[121.516291,25.0329932]}},{"type":"Feature","properties":{"id":"022940e20decd12714582a0a","name":"一銀大樓停車場","category":"parking","facilityType":"offstreet-parking","sourceUpdatedAt":"2026-07-21T02:58:29.534Z","carCapacity":15},"geometry":{"type":"Point","coordinates":[121.5127275,25.0455112]}},{"type":"Feature","properties":{"id":"8c582ef11a2be1329e38d9a8","name":"台灣聯通南門停車場","category":"parking","facilityType":"offstreet-parking","sourceUpdatedAt":"2026-07-21T02:58:29.534Z","carCapacity":59},"geometry":{"type":"Point","coordinates":[121.5076492,25.0337931]}},{"type":"Feature","properties":{"id":"3d780d4c21fdd7468c91bfd2","name":"台灣聯通華山停車場","category":"parking","facilityType":"offstreet-parking","sourceUpdatedAt":"2026-07-21T02:58:29.534Z","carCapacity":150},"geometry":{"type":"Point","coordinates":[121.5293889,25.0430329]}},{"type":"Feature","properties":{"id":"60f696405c1987a8c961d65d","name":"臺北車站東區地下停車場","category":"parking","facilityType":"offstreet-parking","sourceUpdatedAt":"2026-07-21T02:58:29.534Z","carCapacity":258},"geometry":{"type":"Point","coordinates":[121.5176874,25.0476872]}},{"type":"Feature","properties":{"id":"8036aaada845451ea28ca962","name":"三軍總醫院汀州院區停車場","category":"parking","facilityType":"offstreet-parking","sourceUpdatedAt":"2026-07-21T02:58:29.534Z","carCapacity":75},"geometry":{"type":"Point","coordinates":[121.5297759,25.016337]}},{"type":"Feature","properties":{"id":"b7b992e9dfc79003153f3636","name":"台大醫院停車場","category":"parking","facilityType":"offstreet-parking","sourceUpdatedAt":"2026-07-21T02:58:29.534Z","carCapacity":196},"geometry":{"type":"Point","coordinates":[121.5186039,25.0403203]}},{"type":"Feature","properties":{"id":"34dd0070de0a78c5663a166a","name":"新光摩天大樓停車場","category":"parking","facilityType":"offstreet-parking","sourceUpdatedAt":"2026-07-21T02:58:29.534Z","carCapacity":288},"geometry":{"type":"Point","coordinates":[121.515314,25.0462759]}},{"type":"Feature","properties":{"id":"27ea146a2588266941001aec","name":"臺北車站西側地上停車場","category":"parking","facilityType":"offstreet-parking","sourceUpdatedAt":"2026-07-21T02:58:29.534Z","carCapacity":96},"geometry":{"type":"Point","coordinates":[121.5165325,25.0476299]}},{"type":"Feature","properties":{"id":"cfafb2b9758fd581c6189ac8","name":"歐特儀股份有限公司兩廳院地下停車場","category":"parking","facilityType":"offstreet-parking","sourceUpdatedAt":"2026-07-21T02:58:29.534Z","carCapacity":695},"geometry":{"type":"Point","coordinates":[121.5174706,25.0353964]}},{"type":"Feature","properties":{"id":"a42478a3f451d1c593dafad7","name":"黎明大樓停車場","category":"parking","facilityType":"offstreet-parking","sourceUpdatedAt":"2026-07-21T02:58:29.534Z","carCapacity":44},"geometry":{"type":"Point","coordinates":[121.5304577,25.0339196]}},{"type":"Feature","properties":{"id":"44e1b905f93759095c290ecc","name":"容易停牯嶺和平停車場","category":"parking","facilityType":"offstreet-parking","sourceUpdatedAt":"2026-07-21T02:58:29.534Z","carCapacity":4},"geometry":{"type":"Point","coordinates":[121.5185589,25.0269698]}},{"type":"Feature","properties":{"id":"f4824040149d3bdafe556825","name":"耕莘文教院前平面停車場","category":"parking","facilityType":"offstreet-parking","sourceUpdatedAt":"2026-07-21T02:58:29.534Z","carCapacity":58},"geometry":{"type":"Point","coordinates":[121.528919,25.0194255]}},{"type":"Feature","properties":{"id":"3a904a93e6edec869ccafa31","name":"富山停車中正區南門市場停車場","category":"parking","facilityType":"offstreet-parking","sourceUpdatedAt":"2026-07-21T02:58:29.534Z","carCapacity":192},"geometry":{"type":"Point","coordinates":[121.51824,25.032299]}},{"type":"Feature","properties":{"id":"40f5f5d32f08a094bae5e8dc","name":"Times杭州南路第2","category":"parking","facilityType":"offstreet-parking","sourceUpdatedAt":"2026-07-21T02:58:29.534Z","carCapacity":18},"geometry":{"type":"Point","coordinates":[121.5266215,25.0393737]}},{"type":"Feature","properties":{"id":"e74e7484dd2bda901100420f","name":"東門連雲平面停車場","category":"parking","facilityType":"offstreet-parking","sourceUpdatedAt":"2026-07-21T02:58:29.534Z","carCapacity":11},"geometry":{"type":"Point","coordinates":[121.5296798,25.0348047]}},{"type":"Feature","properties":{"id":"747175062b07cd82a8845cdc","name":"永田停車場","category":"parking","facilityType":"offstreet-parking","sourceUpdatedAt":"2026-07-21T02:58:29.534Z","carCapacity":94},"geometry":{"type":"Point","coordinates":[121.515733,25.0457233]}},{"type":"Feature","properties":{"id":"8f691ed26eaed95e62b0103a","name":"館前商業大樓停車場","category":"parking","facilityType":"offstreet-parking","sourceUpdatedAt":"2026-07-21T02:58:29.534Z","carCapacity":6},"geometry":{"type":"Point","coordinates":[121.5148278,25.0464124]}},{"type":"Feature","properties":{"id":"47eea8f044c38332b704bd3d","name":"公館停車場","category":"parking","facilityType":"offstreet-parking","sourceUpdatedAt":"2026-07-21T02:58:29.534Z","carCapacity":133},"geometry":{"type":"Point","coordinates":[121.5351232,25.0109212]}},{"type":"Feature","properties":{"id":"c02c14f1275ffc18c8586374","name":"安婷停車場中正場","category":"parking","facilityType":"offstreet-parking","sourceUpdatedAt":"2026-07-21T02:58:29.534Z","carCapacity":60},"geometry":{"type":"Point","coordinates":[121.5208027,25.0264075]}},{"type":"Feature","properties":{"id":"7a4b3493ba0e6720bac90b34","name":"金山南路停車場","category":"parking","facilityType":"offstreet-parking","sourceUpdatedAt":"2026-07-21T02:58:29.534Z","carCapacity":11},"geometry":{"type":"Point","coordinates":[121.5295019,25.0425658]}},{"type":"Feature","properties":{"id":"cbdb769fb0b912f9a49654df","name":"華山停車場","category":"parking","facilityType":"offstreet-parking","sourceUpdatedAt":"2026-07-21T02:58:29.534Z","carCapacity":42},"geometry":{"type":"Point","coordinates":[121.5263105,25.0455582]}},{"type":"Feature","properties":{"id":"591226d2184167bf8ffa90e0","name":"長揚停車場館前站","category":"parking","facilityType":"offstreet-parking","sourceUpdatedAt":"2026-07-21T02:58:29.534Z","carCapacity":48},"geometry":{"type":"Point","coordinates":[121.5147825,25.0456326]}},{"type":"Feature","properties":{"id":"358faf70120024d5b505ba42","name":"臺北市政府青年局停車場","category":"parking","facilityType":"offstreet-parking","sourceUpdatedAt":"2026-07-21T02:58:29.534Z","carCapacity":137},"geometry":{"type":"Point","coordinates":[121.5222614,25.0390376]}},{"type":"Feature","properties":{"id":"40ca8d535bf963d6d10a91e7","name":"錢櫃新聲停車場","category":"parking","facilityType":"offstreet-parking","sourceUpdatedAt":"2026-07-21T02:58:29.534Z","carCapacity":26},"geometry":{"type":"Point","coordinates":[121.5089318,25.0427912]}},{"type":"Feature","properties":{"id":"19d51a59c17d8d1651eb3978","name":"中正南昌停車場","category":"parking","facilityType":"offstreet-parking","sourceUpdatedAt":"2026-07-21T02:58:29.534Z","carCapacity":1},"geometry":{"type":"Point","coordinates":[121.5168904,25.0313341]}},{"type":"Feature","properties":{"id":"6a079e73ed42d2d4d3bd1c94","name":"Times濟南路二段","category":"parking","facilityType":"offstreet-parking","sourceUpdatedAt":"2026-07-21T02:58:29.534Z","carCapacity":39},"geometry":{"type":"Point","coordinates":[121.5271951,25.041134]}},{"type":"Feature","properties":{"id":"d42523f95e28b58cacbe662b","name":"168停車聯盟-博愛場","category":"parking","facilityType":"offstreet-parking","sourceUpdatedAt":"2026-07-21T02:58:29.534Z","carCapacity":36},"geometry":{"type":"Point","coordinates":[121.5109974,25.0459052]}},{"type":"Feature","properties":{"id":"4ce9717d3e389cb9a7b00e1b","name":"台灣聯通杭州停車場","category":"parking","facilityType":"offstreet-parking","sourceUpdatedAt":"2026-07-21T02:58:29.534Z","carCapacity":54},"geometry":{"type":"Point","coordinates":[121.5266242,25.0425855]}},{"type":"Feature","properties":{"id":"786da522e74b15dba447916f","name":"臺大醫院兒童醫院停車場","category":"parking","facilityType":"offstreet-parking","sourceUpdatedAt":"2026-07-21T02:58:29.534Z","carCapacity":314},"geometry":{"type":"Point","coordinates":[121.5188539,25.0443704]}},{"type":"Feature","properties":{"id":"7ad65e4b6ef5cd02c0b347d9","name":"佳音國際-詔安停車場","category":"parking","facilityType":"offstreet-parking","sourceUpdatedAt":"2026-07-21T02:58:29.534Z","carCapacity":6},"geometry":{"type":"Point","coordinates":[121.5088672,25.0272441]}},{"type":"Feature","properties":{"id":"302e371af0e5091fbd98b6e0","name":"便利停車場林森三站","category":"parking","facilityType":"offstreet-parking","sourceUpdatedAt":"2026-07-21T02:58:29.534Z","carCapacity":26},"geometry":{"type":"Point","coordinates":[121.5229121,25.0441392]}},{"type":"Feature","properties":{"id":"f7722babfef1c7bea7e7b75e","name":"168停車聯盟-北平東場","category":"parking","facilityType":"offstreet-parking","sourceUpdatedAt":"2026-07-21T02:58:29.534Z","carCapacity":59},"geometry":{"type":"Point","coordinates":[121.5262011,25.0456115]}},{"type":"Feature","properties":{"id":"08da7c1cf9dae50d0411a029","name":"Times臨沂街第2","category":"parking","facilityType":"offstreet-parking","sourceUpdatedAt":"2026-07-21T02:58:29.534Z","carCapacity":23},"geometry":{"type":"Point","coordinates":[121.528988,25.0366802]}},{"type":"Feature","properties":{"id":"44aa2b42e6765f0f13e66a54","name":"台大校友聯誼社停車場","category":"parking","facilityType":"offstreet-parking","sourceUpdatedAt":"2026-07-21T02:58:29.534Z","carCapacity":14},"geometry":{"type":"Point","coordinates":[121.5196298,25.0428492]}},{"type":"Feature","properties":{"id":"197d7f3a8fcd1a00ffa1ff5e","name":"台北車站K區地下街停車場","category":"parking","facilityType":"offstreet-parking","sourceUpdatedAt":"2026-07-21T02:58:29.534Z","carCapacity":188},"geometry":{"type":"Point","coordinates":[121.5175614,25.0470065]}},{"type":"Feature","properties":{"id":"6eeb49d5272fef063a5b8f93","name":"通通停牯嶺停車場","category":"parking","facilityType":"offstreet-parking","sourceUpdatedAt":"2026-07-21T02:58:29.534Z","carCapacity":6},"geometry":{"type":"Point","coordinates":[121.51854,25.026948]}},{"type":"Feature","properties":{"id":"d4021f7bb5cad5b5ba983f8e","name":"168停車聯盟-中華北門場","category":"parking","facilityType":"offstreet-parking","sourceUpdatedAt":"2026-07-21T02:58:29.534Z","carCapacity":49},"geometry":{"type":"Point","coordinates":[121.5102132,25.0466821]}},{"type":"Feature","properties":{"id":"59eb344b0d3366c0adf11266","name":"台北市青島社區管理委員會停車場","category":"parking","facilityType":"offstreet-parking","sourceUpdatedAt":"2026-07-21T02:58:29.534Z","carCapacity":81},"geometry":{"type":"Point","coordinates":[121.5240944,25.043556]}},{"type":"Feature","properties":{"id":"88a510844a2dcbe3edf5730a","name":"宏達經營管理顧問有限公司徐州停車場","category":"parking","facilityType":"offstreet-parking","sourceUpdatedAt":"2026-07-21T02:58:29.534Z","carCapacity":83},"geometry":{"type":"Point","coordinates":[121.5215064,25.0409713]}},{"type":"Feature","properties":{"id":"0c21540a0b2232528949ab0b","name":"嘟嘟房杭州南站停車場","category":"parking","facilityType":"offstreet-parking","sourceUpdatedAt":"2026-07-21T02:58:29.534Z","carCapacity":11},"geometry":{"type":"Point","coordinates":[121.5277972,25.039118]}},{"type":"Feature","properties":{"id":"87da72a0ce71ef21a72d2f53","name":"168停車聯盟-金山場","category":"parking","facilityType":"offstreet-parking","sourceUpdatedAt":"2026-07-21T02:58:29.534Z","carCapacity":55},"geometry":{"type":"Point","coordinates":[121.5292294,25.0424219]}},{"type":"Feature","properties":{"id":"18a26b4a8d7d8a9a12417330","name":"同安街平面停車場","category":"parking","facilityType":"offstreet-parking","sourceUpdatedAt":"2026-07-21T02:58:29.534Z","carCapacity":22},"geometry":{"type":"Point","coordinates":[121.5209864,25.021009]}},{"type":"Feature","properties":{"id":"92ba320187628d3e526d0743","name":"臺北市中正運動中心地下停車場","category":"parking","facilityType":"offstreet-parking","sourceUpdatedAt":"2026-07-21T02:58:29.534Z","carCapacity":101},"geometry":{"type":"Point","coordinates":[121.5193701,25.0383591]}},{"type":"Feature","properties":{"id":"27a1dde5f7580d4810f1a5a5","name":"168停車聯盟-重慶南場","category":"parking","facilityType":"offstreet-parking","sourceUpdatedAt":"2026-07-21T02:58:29.534Z","carCapacity":19},"geometry":{"type":"Point","coordinates":[121.5165125,25.0237072]}},{"type":"Feature","properties":{"id":"c758bd08aa55effbf152630a","name":"鐳銳科技東門停車場","category":"parking","facilityType":"offstreet-parking","sourceUpdatedAt":"2026-07-21T02:58:29.534Z","carCapacity":22},"geometry":{"type":"Point","coordinates":[121.5298678,25.034775]}},{"type":"Feature","properties":{"id":"909f66ec10c4a7aec117e252","name":"墾海停車場","category":"parking","facilityType":"offstreet-parking","sourceUpdatedAt":"2026-07-21T02:58:29.534Z","carCapacity":66},"geometry":{"type":"Point","coordinates":[121.5247787,25.0448321]}},{"type":"Feature","properties":{"id":"c8f333ab9dd62400638bb3b9","name":"佳音同安場","category":"parking","facilityType":"offstreet-parking","sourceUpdatedAt":"2026-07-21T02:58:29.534Z","carCapacity":7},"geometry":{"type":"Point","coordinates":[121.5215104,25.0249677]}},{"type":"Feature","properties":{"id":"4b11f5a10be7fb783bbb9411","name":"南華高中收費停車場","category":"parking","facilityType":"offstreet-parking","sourceUpdatedAt":"2026-07-21T02:58:29.534Z","carCapacity":17},"geometry":{"type":"Point","coordinates":[121.5311071,25.0157305]}},{"type":"Feature","properties":{"id":"1ada191461d9985bcf33a276","name":"臺北市中正區螢橋國民小學停車場","category":"parking","facilityType":"offstreet-parking","sourceUpdatedAt":"2026-07-21T02:58:29.534Z","carCapacity":24},"geometry":{"type":"Point","coordinates":[121.514332,25.0250745]}},{"type":"Feature","properties":{"id":"4b1cbb3efde06a3cfa5732f6","name":"台灣聯通衡陽停車場","category":"parking","facilityType":"offstreet-parking","sourceUpdatedAt":"2026-07-21T02:58:29.534Z","carCapacity":149},"geometry":{"type":"Point","coordinates":[121.5121669,25.0423924]}},{"type":"Feature","properties":{"id":"d3ff4e7406b476be85398bea","name":"財團法人張榮發基金會地下停車場","category":"parking","facilityType":"offstreet-parking","sourceUpdatedAt":"2026-07-21T02:58:29.534Z","carCapacity":95},"geometry":{"type":"Point","coordinates":[121.5190356,25.0386349]}},{"type":"Feature","properties":{"id":"94f6367dbd74e7463ebf157b","name":"台北光華商場停車場","category":"parking","facilityType":"offstreet-parking","sourceUpdatedAt":"2026-07-21T02:58:29.534Z","carCapacity":81},"geometry":{"type":"Point","coordinates":[121.5316353,25.0453474]}},{"type":"Feature","properties":{"id":"f09c9e50aa1f92af234c806b","name":"中華電信仁愛場停車場","category":"parking","facilityType":"offstreet-parking","sourceUpdatedAt":"2026-07-21T02:58:29.534Z","carCapacity":133},"geometry":{"type":"Point","coordinates":[121.5246495,25.0375523]}},{"type":"Feature","properties":{"id":"0f521f5e825e6587cc398aae","name":"螢橋國中停車場","category":"parking","facilityType":"offstreet-parking","sourceUpdatedAt":"2026-07-21T02:58:29.534Z","carCapacity":40},"geometry":{"type":"Point","coordinates":[121.5266075,25.018823]}},{"type":"Feature","properties":{"id":"96666b706d3e6977d81b15ca","name":"水岸停車場","category":"parking","facilityType":"offstreet-parking","sourceUpdatedAt":"2026-07-21T02:58:29.534Z","carCapacity":112},"geometry":{"type":"Point","coordinates":[121.52895,25.01131]}},{"type":"Feature","properties":{"id":"c4fa02cf8bf940bfa901345b","name":"台北花園大酒店機械停車場","category":"parking","facilityType":"offstreet-parking","sourceUpdatedAt":"2026-07-21T02:58:29.534Z","carCapacity":108},"geometry":{"type":"Point","coordinates":[121.5072609,25.0362689]}},{"type":"Feature","properties":{"id":"05ae4ddec964ca99b1eca08a","name":"統一精工水源停車場","category":"parking","facilityType":"offstreet-parking","sourceUpdatedAt":"2026-07-21T02:58:29.534Z","carCapacity":488},"geometry":{"type":"Point","coordinates":[121.5305577,25.0142858]}},{"type":"Feature","properties":{"id":"67a5a387765f56f9ce5e8093","name":"台北花園大酒店停車場","category":"parking","facilityType":"offstreet-parking","sourceUpdatedAt":"2026-07-21T02:58:29.534Z","carCapacity":100},"geometry":{"type":"Point","coordinates":[121.5069567,25.0367079]}},{"type":"Feature","properties":{"id":"d4b23c9fc625303e4a427f3c","name":"臺北市立聯合醫院-婦幼院區停車場","category":"parking","facilityType":"offstreet-parking","sourceUpdatedAt":"2026-07-21T02:58:29.534Z","carCapacity":9},"geometry":{"type":"Point","coordinates":[121.5192888,25.0290784]}},{"type":"Feature","properties":{"id":"57799db4d9b3922a6a126723","name":"臺北市立聯合醫院-和平院區停車場","category":"parking","facilityType":"offstreet-parking","sourceUpdatedAt":"2026-07-21T02:58:29.534Z","carCapacity":10},"geometry":{"type":"Point","coordinates":[121.5073491,25.0356047]}},{"type":"Feature","properties":{"id":"962d6b6193d49d23b0f4a60b","name":"炬嘉仁愛停車場","category":"parking","facilityType":"offstreet-parking","sourceUpdatedAt":"2026-07-21T02:58:29.534Z","carCapacity":73},"geometry":{"type":"Point","coordinates":[121.5254769,25.0379013]}},{"type":"Feature","properties":{"id":"70f7d14c56ac8cb4f94efe08","name":"嘟嘟房仁愛新生2站停車場","category":"parking","facilityType":"offstreet-parking","sourceUpdatedAt":"2026-07-21T02:58:29.534Z","carCapacity":20},"geometry":{"type":"Point","coordinates":[121.5319928,25.0378583]}},{"type":"Feature","properties":{"id":"760201ee0f86c5620b89fe2e","name":"台灣聯通重慶停車場","category":"parking","facilityType":"offstreet-parking","sourceUpdatedAt":"2026-07-21T02:58:29.534Z","carCapacity":111},"geometry":{"type":"Point","coordinates":[121.5136,25.0446593]}},{"type":"Feature","properties":{"id":"2ea6e1f0cdd0c595fc7d0be9","name":"巧巧生活事業有限公司","category":"parking","facilityType":"offstreet-parking","sourceUpdatedAt":"2026-07-21T02:58:29.534Z","carCapacity":39},"geometry":{"type":"Point","coordinates":[121.5223888,25.0266018]}},{"type":"Feature","properties":{"id":"d041d950f8637809d14e1218","name":"國立臺灣大學水源校區平面停車場","category":"parking","facilityType":"offstreet-parking","sourceUpdatedAt":"2026-07-21T02:58:29.534Z","carCapacity":143},"geometry":{"type":"Point","coordinates":[121.5299167,25.0137714]}},{"type":"Feature","properties":{"id":"6890bb76affe1b644ff2301b","name":"城市車旅廣州街站停車場","category":"parking","facilityType":"offstreet-parking","sourceUpdatedAt":"2026-07-21T02:58:29.534Z","carCapacity":89},"geometry":{"type":"Point","coordinates":[121.5096771,25.0354824]}},{"type":"Feature","properties":{"id":"00a6b8accdb3dd921642f299","name":"Times和平西路二段","category":"parking","facilityType":"offstreet-parking","sourceUpdatedAt":"2026-07-21T02:58:29.534Z","carCapacity":13},"geometry":{"type":"Point","coordinates":[121.51261,25.028572]}},{"type":"Feature","properties":{"id":"bdb73daa706e4c7259334537","name":"嘟嘟房牯嶺2站停車場","category":"parking","facilityType":"offstreet-parking","sourceUpdatedAt":"2026-07-21T02:58:29.534Z","carCapacity":89},"geometry":{"type":"Point","coordinates":[121.519177,25.0257322]}},{"type":"Feature","properties":{"id":"4c6352b21c75a470ab267c64","name":"NaviPark牯嶺場","category":"parking","facilityType":"offstreet-parking","sourceUpdatedAt":"2026-07-21T02:58:29.534Z","carCapacity":10},"geometry":{"type":"Point","coordinates":[121.5172597,25.0291597]}},{"type":"Feature","properties":{"id":"483760e1008b555b3f5c0ac0","name":"永康停車場","category":"parking","facilityType":"offstreet-parking","sourceUpdatedAt":"2026-07-21T02:58:29.534Z","carCapacity":15},"geometry":{"type":"Point","coordinates":[121.5309873,25.0339615]}},{"type":"Feature","properties":{"id":"d26a59906840ed3c3e33208c","name":"臺北車站西區地下停車場","category":"parking","facilityType":"offstreet-parking","sourceUpdatedAt":"2026-07-21T02:58:29.534Z","carCapacity":179},"geometry":{"type":"Point","coordinates":[121.5166224,25.047854]}},{"type":"Feature","properties":{"id":"5be54cdd50695fe7b05734be","name":"Times 石園社區","category":"parking","facilityType":"offstreet-parking","sourceUpdatedAt":"2026-07-21T02:58:29.534Z","carCapacity":29},"geometry":{"type":"Point","coordinates":[121.5225597,25.0366306]}},{"type":"Feature","properties":{"id":"cab9305aa3ac6be0713fa614","name":"華山停車場","category":"parking","facilityType":"offstreet-parking","sourceUpdatedAt":"2026-07-21T02:58:29.534Z","carCapacity":70},"geometry":{"type":"Point","coordinates":[121.5285133,25.0446056]}},{"type":"Feature","properties":{"id":"557d413504143c769c1a4a38","name":"希望廣場","category":"parking","facilityType":"offstreet-parking","sourceUpdatedAt":"2026-07-21T02:58:29.534Z","carCapacity":42},"geometry":{"type":"Point","coordinates":[121.5267097,25.045941]}},{"type":"Feature","properties":{"id":"dabf934b1cfbb57de8d85edb","name":"三創生活園區停車場","category":"parking","facilityType":"offstreet-parking","sourceUpdatedAt":"2026-07-21T02:58:29.534Z","carCapacity":454},"geometry":{"type":"Point","coordinates":[121.5308108,25.0452928]}},{"type":"Feature","properties":{"id":"65cdc197cc4c345a31c804b2","name":"便利停車場臨沂五站","category":"parking","facilityType":"offstreet-parking","sourceUpdatedAt":"2026-07-21T02:58:29.534Z","carCapacity":16},"geometry":{"type":"Point","coordinates":[121.5287938,25.0364239]}},{"type":"Feature","properties":{"id":"c3a9c9925b6651029e4038ff","name":"嘟嘟房開封站停車場","category":"parking","facilityType":"offstreet-parking","sourceUpdatedAt":"2026-07-21T02:58:29.534Z","carCapacity":14},"geometry":{"type":"Point","coordinates":[121.5129088,25.0460894]}},{"type":"Feature","properties":{"id":"a054fd8aa65d6073f4f80bfa","name":"嘟嘟房重慶南站停車場","category":"parking","facilityType":"offstreet-parking","sourceUpdatedAt":"2026-07-21T02:58:29.534Z","carCapacity":43},"geometry":{"type":"Point","coordinates":[121.5130529,25.0448509]}},{"type":"Feature","properties":{"id":"d598da0eccd3221870b23f72","name":"臨沂街臨時平面停車場（一）","category":"parking","facilityType":"offstreet-parking","sourceUpdatedAt":"2026-07-21T02:58:29.534Z","carCapacity":14},"geometry":{"type":"Point","coordinates":[121.5309557,25.0418225]}},{"type":"Feature","properties":{"id":"64e00757803813420b0164c6","name":"禾典公館站","category":"parking","facilityType":"offstreet-parking","sourceUpdatedAt":"2026-07-21T02:58:29.534Z","carCapacity":13},"geometry":{"type":"Point","coordinates":[121.5329858,25.0142341]}},{"type":"Feature","properties":{"id":"7e6e7d574f2f990236020fd0","name":"嘟嘟房西門中華1站停車場","category":"parking","facilityType":"offstreet-parking","sourceUpdatedAt":"2026-07-21T02:58:29.534Z","carCapacity":43},"geometry":{"type":"Point","coordinates":[121.5092965,25.0427393]}},{"type":"Feature","properties":{"id":"9e3dfbf10eaf7ee6e42d4742","name":"富山泉州停車場","category":"parking","facilityType":"offstreet-parking","sourceUpdatedAt":"2026-07-21T02:58:29.534Z","carCapacity":20},"geometry":{"type":"Point","coordinates":[121.5142433,25.0289257]}},{"type":"Feature","properties":{"id":"173bf002159f335bc8c0922d","name":"林森台大站","category":"parking","facilityType":"offstreet-parking","sourceUpdatedAt":"2026-07-21T02:58:29.534Z","carCapacity":34},"geometry":{"type":"Point","coordinates":[121.5220332,25.0392793]}},{"type":"Feature","properties":{"id":"5bbaa539286b0e6183eb73b8","name":"Times延平開封","category":"parking","facilityType":"offstreet-parking","sourceUpdatedAt":"2026-07-21T02:58:29.534Z","carCapacity":10},"geometry":{"type":"Point","coordinates":[121.5107849,25.0466441]}},{"type":"Feature","properties":{"id":"aa5d70da156f43ae7d7fe231","name":"明道樓後方停車場","category":"parking","facilityType":"offstreet-parking","sourceUpdatedAt":"2026-07-21T02:58:29.534Z","carCapacity":20},"geometry":{"type":"Point","coordinates":[121.5113777,25.0298295]}},{"type":"Feature","properties":{"id":"a2297f7b6a1e523de81883f0","name":"嘟嘟房南昌1站停車場","category":"parking","facilityType":"offstreet-parking","sourceUpdatedAt":"2026-07-21T02:58:29.534Z","carCapacity":4},"geometry":{"type":"Point","coordinates":[121.5181652,25.0282425]}},{"type":"Feature","properties":{"id":"126c3c8eb0ef17645e2b57a3","name":"博客停車場-家福同安場","category":"parking","facilityType":"offstreet-parking","sourceUpdatedAt":"2026-07-21T02:58:29.534Z","carCapacity":17},"geometry":{"type":"Point","coordinates":[121.5213259,25.0233922]}},{"type":"Feature","properties":{"id":"f89827f2d84cc50043f51a48","name":"城中社會福利綜合大樓地下停車場","category":"parking","facilityType":"offstreet-parking","sourceUpdatedAt":"2026-07-21T02:58:29.534Z","carCapacity":41},"geometry":{"type":"Point","coordinates":[121.5090025,25.0388069]}},{"type":"Feature","properties":{"id":"dfa2557f5cf918a00dc7cf99","name":"168停車聯盟-東門場","category":"parking","facilityType":"offstreet-parking","sourceUpdatedAt":"2026-07-21T02:58:29.534Z","carCapacity":1},"geometry":{"type":"Point","coordinates":[121.5275,25.034531]}},{"type":"Feature","properties":{"id":"5b53e5d98e3bf5b246cd034d","name":"延平南路平面停車場","category":"parking","facilityType":"offstreet-parking","sourceUpdatedAt":"2026-07-21T02:58:29.534Z","carCapacity":49},"geometry":{"type":"Point","coordinates":[121.508705,25.0380266]}},{"type":"Feature","properties":{"id":"235ce19c76c693d77c9e368d","name":"和雲台北廣州街停車場","category":"parking","facilityType":"offstreet-parking","sourceUpdatedAt":"2026-07-21T02:58:29.534Z","carCapacity":40},"geometry":{"type":"Point","coordinates":[121.508596,25.0358937]}},{"type":"Feature","properties":{"id":"563b7b2330143151a8f6b43f","name":"臨沂街臨時平面停車場（二）","category":"parking","facilityType":"offstreet-parking","sourceUpdatedAt":"2026-07-21T02:58:29.534Z","carCapacity":9},"geometry":{"type":"Point","coordinates":[121.5286602,25.0367707]}},{"type":"Feature","properties":{"id":"996520cee73a3d20fe325bd7","name":"嘟嘟房詔安站停車場","category":"parking","facilityType":"offstreet-parking","sourceUpdatedAt":"2026-07-21T02:58:29.534Z","carCapacity":3},"geometry":{"type":"Point","coordinates":[121.5134816,25.0247504]}},{"type":"Feature","properties":{"id":"98552d2b04f7eaa22f2ea9c5","name":"臺北市中正區社會福利綜合大樓附設停車場","category":"parking","facilityType":"offstreet-parking","sourceUpdatedAt":"2026-07-21T02:58:29.534Z","carCapacity":35},"geometry":{"type":"Point","coordinates":[121.5076936,25.032776]}},{"type":"Feature","properties":{"id":"4570135806eabf69c3999a99","name":"台灣聯通醒吾停車場","category":"parking","facilityType":"offstreet-parking","sourceUpdatedAt":"2026-07-21T02:58:29.534Z","carCapacity":23},"geometry":{"type":"Point","coordinates":[121.5266792,25.042792]}},{"type":"Feature","properties":{"id":"8c98d9d8152d78258d63c8c5","name":"台灣聯通城中停車場","category":"parking","facilityType":"offstreet-parking","sourceUpdatedAt":"2026-07-21T02:58:29.534Z","carCapacity":157},"geometry":{"type":"Point","coordinates":[121.5138227,25.0467206]}},{"type":"Feature","properties":{"id":"12521cdfc2f592ac8b7e592a","name":"嘟嘟房廈門站停車場","category":"parking","facilityType":"offstreet-parking","sourceUpdatedAt":"2026-07-21T02:58:29.534Z","carCapacity":7},"geometry":{"type":"Point","coordinates":[121.5204175,25.0244293]}},{"type":"Feature","properties":{"id":"9da62d6583a991f5689578ac","name":"嘟嘟房廈門1站停車場","category":"parking","facilityType":"offstreet-parking","sourceUpdatedAt":"2026-07-21T02:58:29.534Z","carCapacity":7},"geometry":{"type":"Point","coordinates":[121.5206194,25.0244099]}},{"type":"Feature","properties":{"id":"dacc667c71a0fc5cdc3b1e11","name":"嘟嘟房汀州站停車場","category":"parking","facilityType":"offstreet-parking","sourceUpdatedAt":"2026-07-21T02:58:29.534Z","carCapacity":45},"geometry":{"type":"Point","coordinates":[121.5152593,25.0262508]}},{"type":"Feature","properties":{"id":"def009eac954f99dbf43582e","name":"愛馬屋新生場","category":"parking","facilityType":"offstreet-parking","sourceUpdatedAt":"2026-07-21T02:58:29.534Z","carCapacity":4},"geometry":{"type":"Point","coordinates":[121.5322756,25.0407084]}},{"type":"Feature","properties":{"id":"09f09035e28d5d3f056993d6","name":"台北時代寓所地下平面停車場","category":"parking","facilityType":"offstreet-parking","sourceUpdatedAt":"2026-07-21T02:58:29.534Z","carCapacity":137},"geometry":{"type":"Point","coordinates":[121.5228042,25.04437]}},{"type":"Feature","properties":{"id":"7ab68397fb91d040a6ea21c5","name":"小南門停車場","category":"parking","facilityType":"offstreet-parking","sourceUpdatedAt":"2026-07-21T02:58:29.534Z","carCapacity":13},"geometry":{"type":"Point","coordinates":[121.5077199,25.0364619]}},{"type":"Feature","properties":{"id":"2ae131ff3efcf3e6ce95a222","name":"和平廈門停車場","category":"parking","facilityType":"offstreet-parking","sourceUpdatedAt":"2026-07-21T02:58:29.534Z","carCapacity":3},"geometry":{"type":"Point","coordinates":[121.5183159,25.0269245]}},{"type":"Feature","properties":{"id":"7247760ad0bdcf6a567941cd","name":"牯嶺街停車場","category":"parking","facilityType":"offstreet-parking","sourceUpdatedAt":"2026-07-21T02:58:29.534Z","carCapacity":2},"geometry":{"type":"Point","coordinates":[121.5185537,25.0269356]}},{"type":"Feature","properties":{"id":"3cb05e30165f4054f3098be0","name":"水源停車場","category":"parking","facilityType":"offstreet-parking","sourceUpdatedAt":"2026-07-21T02:58:29.534Z","carCapacity":44},"geometry":{"type":"Point","coordinates":[121.5343973,25.012741]}},{"type":"Feature","properties":{"id":"306b639da12e17e155ca65b0","name":"中正永昌停車場","category":"parking","facilityType":"offstreet-parking","sourceUpdatedAt":"2026-07-21T02:58:29.534Z","carCapacity":34},"geometry":{"type":"Point","coordinates":[121.5099001,25.0278067]}},{"type":"Feature","properties":{"id":"02f5b6c0b3dc396a60bd6d89","name":"Times皇翔忠孝臨沂飯店","category":"parking","facilityType":"offstreet-parking","sourceUpdatedAt":"2026-07-21T02:58:29.534Z","carCapacity":69},"geometry":{"type":"Point","coordinates":[121.5306822,25.0432329]}},{"type":"Feature","properties":{"id":"e9a473ca715b3b641fe2bbfb","name":"希望園區停車場","category":"parking","facilityType":"offstreet-parking","sourceUpdatedAt":"2026-07-21T02:58:29.534Z","carCapacity":298},"geometry":{"type":"Point","coordinates":[121.5322354,25.0445706]}},{"type":"Feature","properties":{"id":"606f2f181b069afd67ba0008","name":"重慶南二停車場","category":"parking","facilityType":"offstreet-parking","sourceUpdatedAt":"2026-07-21T02:58:29.534Z","carCapacity":36},"geometry":{"type":"Point","coordinates":[121.5125904,25.0333584]}},{"type":"Feature","properties":{"id":"b5a1918c9c38ac91a7c99ddf","name":"168停車聯盟-福州場","category":"parking","facilityType":"offstreet-parking","sourceUpdatedAt":"2026-07-21T02:58:29.534Z","carCapacity":17},"geometry":{"type":"Point","coordinates":[121.5144518,25.0264549]}},{"type":"Feature","properties":{"id":"15c56cdd841cbb4ffbd75071","name":"Times羅斯福路三段","category":"parking","facilityType":"offstreet-parking","sourceUpdatedAt":"2026-07-21T02:58:29.534Z","carCapacity":5},"geometry":{"type":"Point","coordinates":[121.5294115,25.0184304]}},{"type":"Feature","properties":{"id":"c18bade96e60dba45c08aeb0","name":"嘟嘟房台北西門站停車場","category":"parking","facilityType":"offstreet-parking","sourceUpdatedAt":"2026-07-21T02:58:29.534Z","carCapacity":87},"geometry":{"type":"Point","coordinates":[121.5086222,25.0417096]}},{"type":"Feature","properties":{"id":"5d1927c6a4fd12e9eaae86eb","name":"168停車聯盟-水源市場","category":"parking","facilityType":"offstreet-parking","sourceUpdatedAt":"2026-07-21T02:58:29.534Z","carCapacity":59},"geometry":{"type":"Point","coordinates":[121.5349992,25.0137383]}},{"type":"Feature","properties":{"id":"9b65c6564753cfd7fd410f9e","name":"便利停車場懷寧站","category":"parking","facilityType":"offstreet-parking","sourceUpdatedAt":"2026-07-21T02:58:29.534Z","carCapacity":5},"geometry":{"type":"Point","coordinates":[121.5138469,25.0453093]}},{"type":"Feature","properties":{"id":"004439fef19a2395e5b808eb","name":"聯永物業股份有限公司臨沂二站","category":"parking","facilityType":"offstreet-parking","sourceUpdatedAt":"2026-07-21T02:58:29.534Z","carCapacity":10},"geometry":{"type":"Point","coordinates":[121.5316925,25.0409306]}},{"type":"Feature","properties":{"id":"e2204b74fb182c231b0a7bda","name":"Times重慶南路三段","category":"parking","facilityType":"offstreet-parking","sourceUpdatedAt":"2026-07-21T02:58:29.534Z","carCapacity":2},"geometry":{"type":"Point","coordinates":[121.5161479,25.0292253]}},{"type":"Feature","properties":{"id":"685353e60f26a4bc59ab42d9","name":"Times信陽街","category":"parking","facilityType":"offstreet-parking","sourceUpdatedAt":"2026-07-21T02:58:29.534Z","carCapacity":6},"geometry":{"type":"Point","coordinates":[121.5157767,25.044782]}},{"type":"Feature","properties":{"id":"32dbc3ae7f624edd6b50883e","name":"台北華山場","category":"parking","facilityType":"offstreet-parking","sourceUpdatedAt":"2026-07-21T02:58:29.534Z","carCapacity":17},"geometry":{"type":"Point","coordinates":[121.5269871,25.0451016]}},{"type":"Feature","properties":{"id":"6a49a980c6db5c5e0140e3e3","name":"Times重慶南路一段","category":"parking","facilityType":"offstreet-parking","sourceUpdatedAt":"2026-07-21T02:58:29.534Z","carCapacity":5},"geometry":{"type":"Point","coordinates":[121.5134137,25.0454285]}},{"type":"Feature","properties":{"id":"7a50bbca2bdf3c7258ba506c","name":"國語日報停車場","category":"parking","facilityType":"offstreet-parking","sourceUpdatedAt":"2026-07-21T02:58:29.534Z","carCapacity":30},"geometry":{"type":"Point","coordinates":[121.5201887,25.0296121]}},{"type":"Feature","properties":{"id":"1d6877be0429dad295b5ff90","name":"及泰泉州1場","category":"parking","facilityType":"offstreet-parking","sourceUpdatedAt":"2026-07-21T02:58:29.534Z","carCapacity":35},"geometry":{"type":"Point","coordinates":[121.5143846,25.0283735]}},{"type":"Feature","properties":{"id":"863d9fc2c246ad4410604aff","name":"臺北市立成功高級中學綜合大樓地下停車場","category":"parking","facilityType":"offstreet-parking","sourceUpdatedAt":"2026-07-21T02:58:29.534Z","carCapacity":93},"geometry":{"type":"Point","coordinates":[121.5232168,25.0431381]}},{"type":"Feature","properties":{"id":"630e8adcbfb43e0b09d54fb3","name":"USPACE臨沂榮譽場","category":"parking","facilityType":"offstreet-parking","sourceUpdatedAt":"2026-07-21T02:58:29.534Z","carCapacity":6},"geometry":{"type":"Point","coordinates":[121.5306004,25.0356575]}},{"type":"Feature","properties":{"id":"0225094b08b4fbba1881ef45","name":"168停車聯盟-南昌場","category":"parking","facilityType":"offstreet-parking","sourceUpdatedAt":"2026-07-21T02:58:29.534Z","carCapacity":6},"geometry":{"type":"Point","coordinates":[121.5165467,25.0312661]}},{"type":"Feature","properties":{"id":"5c56679cd3c18a829ac3eb8d","name":"臺北市客家文化中心附設地下停車場","category":"parking","facilityType":"offstreet-parking","sourceUpdatedAt":"2026-07-21T02:58:29.534Z","carCapacity":63},"geometry":{"type":"Point","coordinates":[121.5248813,25.0205391]}},{"type":"Feature","properties":{"id":"1ca49b6cc5d744fc1103df5d","name":"聯永物業股份有限公司臨沂站","category":"parking","facilityType":"offstreet-parking","sourceUpdatedAt":"2026-07-21T02:58:29.534Z","carCapacity":6},"geometry":{"type":"Point","coordinates":[121.5280154,25.0361824]}},{"type":"Feature","properties":{"id":"de19e2378156f21b4825ee19","name":"中正首藝停車場","category":"parking","facilityType":"offstreet-parking","sourceUpdatedAt":"2026-07-21T02:58:29.534Z","carCapacity":22},"geometry":{"type":"Point","coordinates":[121.5260505,25.0408767]}},{"type":"Feature","properties":{"id":"ab20a669d459c9a78e62ea7b","name":"臨沂街71巷平面停車場","category":"parking","facilityType":"offstreet-parking","sourceUpdatedAt":"2026-07-21T02:58:29.534Z","carCapacity":3},"geometry":{"type":"Point","coordinates":[121.5314352,25.0370811]}},{"type":"Feature","properties":{"id":"4417fc6503ee12250ac4ab25","name":"良友八德停車場","category":"parking","facilityType":"offstreet-parking","sourceUpdatedAt":"2026-07-21T02:58:29.534Z","carCapacity":52},"geometry":{"type":"Point","coordinates":[121.5310125,25.0430505]}},{"type":"Feature","properties":{"id":"a84aca9edcf2489d2b83c7d2","name":"168停車聯盟-泉州場","category":"parking","facilityType":"offstreet-parking","sourceUpdatedAt":"2026-07-21T02:58:29.534Z","carCapacity":21},"geometry":{"type":"Point","coordinates":[121.51374,25.028902]}},{"type":"Feature","properties":{"id":"7f3d3a88b5efc540c2ac9791","name":"Right here parking瑞誼停車場","category":"parking","facilityType":"offstreet-parking","sourceUpdatedAt":"2026-07-21T02:58:29.534Z","carCapacity":28},"geometry":{"type":"Point","coordinates":[121.5254637,25.0400331]}},{"type":"Feature","properties":{"id":"ceb4bee2b98491c9acabb845","name":"168停車聯盟-汀州場","category":"parking","facilityType":"offstreet-parking","sourceUpdatedAt":"2026-07-21T02:58:29.534Z","carCapacity":26},"geometry":{"type":"Point","coordinates":[121.5307221,25.0159451]}},{"type":"Feature","properties":{"id":"549972d3a8caf3f0fbaa5078","name":"Times中正紀念堂捷運站","category":"parking","facilityType":"offstreet-parking","sourceUpdatedAt":"2026-07-21T02:58:29.534Z","carCapacity":10},"geometry":{"type":"Point","coordinates":[121.5173869,25.0343382]}},{"type":"Feature","properties":{"id":"3e5751a58e30d88860627e91","name":"台北金門街停車場","category":"parking","facilityType":"offstreet-parking","sourceUpdatedAt":"2026-07-21T02:58:29.534Z","carCapacity":6},"geometry":{"type":"Point","coordinates":[121.5217822,25.0208861]}},{"type":"Feature","properties":{"id":"ac66b37c6de33e86ee077985","name":"Times中正紀念堂前","category":"parking","facilityType":"offstreet-parking","sourceUpdatedAt":"2026-07-21T02:58:29.534Z","carCapacity":5},"geometry":{"type":"Point","coordinates":[121.51962,25.033532]}},{"type":"Feature","properties":{"id":"2a8a8bf86282e46a90aa4cb8","name":"台北臨沂街停車場","category":"parking","facilityType":"offstreet-parking","sourceUpdatedAt":"2026-07-21T02:58:29.534Z","carCapacity":4},"geometry":{"type":"Point","coordinates":[121.5285507,25.0356498]}},{"type":"Feature","properties":{"id":"14734a07def53f94060c500b","name":"御車坊","category":"parking","facilityType":"offstreet-parking","sourceUpdatedAt":"2026-07-21T02:58:29.534Z","carCapacity":34},"geometry":{"type":"Point","coordinates":[121.5295259,25.0412664]}},{"type":"Feature","properties":{"id":"a0c9cc52d02e1bb8d25ca07b","name":"Times大埔街","category":"parking","facilityType":"offstreet-parking","sourceUpdatedAt":"2026-07-21T02:58:29.534Z","carCapacity":6},"geometry":{"type":"Point","coordinates":[121.505022,25.0316931]}},{"type":"Feature","properties":{"id":"b30593c772e1a30be247c2c3","name":"Alife武昌街停車場","category":"parking","facilityType":"offstreet-parking","sourceUpdatedAt":"2026-07-21T02:58:29.534Z","carCapacity":15},"geometry":{"type":"Point","coordinates":[121.5125553,25.0439357]}},{"type":"Feature","properties":{"id":"b32a3b012dc46ef530639170","name":"中華路2段409巷平面停車場","category":"parking","facilityType":"offstreet-parking","sourceUpdatedAt":"2026-07-21T02:58:29.534Z","carCapacity":5},"geometry":{"type":"Point","coordinates":[121.5082843,25.0258769]}},{"type":"Feature","properties":{"id":"54cac654bc29941da1573736","name":"東門市場停車場","category":"parking","facilityType":"offstreet-parking","sourceUpdatedAt":"2026-07-21T02:58:29.534Z","carCapacity":10},"geometry":{"type":"Point","coordinates":[121.52675,25.036093]}},{"type":"Feature","properties":{"id":"2c5cedff4c9df0536920c15f","name":"台大醫院景福停車場","category":"parking","facilityType":"offstreet-parking","sourceUpdatedAt":"2026-07-21T02:58:29.534Z","carCapacity":19},"geometry":{"type":"Point","coordinates":[121.51702,25.043919]}},{"type":"Feature","properties":{"id":"aa785a51eb889dd505c28c0c","name":"USPACE新光華山金融中心停車場","category":"parking","facilityType":"offstreet-parking","sourceUpdatedAt":"2026-07-21T02:58:29.534Z","carCapacity":117},"geometry":{"type":"Point","coordinates":[121.52693,25.044852]}},{"type":"Feature","properties":{"id":"a9fdb1e8f860d0122e54d39c","name":"城市車旅台北貴陽停車場","category":"parking","facilityType":"offstreet-parking","sourceUpdatedAt":"2026-07-21T02:58:29.534Z","carCapacity":29},"geometry":{"type":"Point","coordinates":[121.50964,25.038985]}},{"type":"Feature","properties":{"id":"f01e5cc7adfca20225f79a3f","name":"USPACE台北鉑萃酒店停車場","category":"parking","facilityType":"offstreet-parking","sourceUpdatedAt":"2026-07-21T02:58:29.534Z","carCapacity":109},"geometry":{"type":"Point","coordinates":[121.51881,25.045126]}},{"type":"Feature","properties":{"id":"7a01b08a91f2f8598e64d3ea","name":"汀州二停車場","category":"parking","facilityType":"offstreet-parking","sourceUpdatedAt":"2026-07-21T02:58:29.534Z","carCapacity":3},"geometry":{"type":"Point","coordinates":[121.51496,25.026122]}}]}
