{"type":"FeatureCollection","features":[{"type":"Feature","properties":{"name":"四川橋","category":"bus"},"geometry":{"type":"Point","coordinates":[121.644816,25.105065]}},{"type":"Feature","properties":{"name":"烘內","category":"bus"},"geometry":{"type":"Point","coordinates":[121.6439911,25.104621]}},{"type":"Feature","properties":{"name":"月牙泉","category":"bus"},"geometry":{"type":"Point","coordinates":[121.6437904,25.103162]}},{"type":"Feature","properties":{"name":"烘下","category":"bus"},"geometry":{"type":"Point","coordinates":[121.642038,25.098575]}},{"type":"Feature","properties":{"name":"堪農山莊","category":"bus"},"geometry":{"type":"Point","coordinates":[121.6420523,25.09722]}},{"type":"Feature","properties":{"name":"慈惠堂","category":"bus"},"geometry":{"type":"Point","coordinates":[121.644057,25.093758]}},{"type":"Feature","properties":{"name":"汐萬路三段","category":"bus"},"geometry":{"type":"Point","coordinates":[121.643058,25.091852]}},{"type":"Feature","properties":{"name":"拱北殿","category":"bus"},"geometry":{"type":"Point","coordinates":[121.643412,25.090723]}},{"type":"Feature","properties":{"name":"北港國小","category":"bus"},"geometry":{"type":"Point","coordinates":[121.645666,25.089352]}},{"type":"Feature","properties":{"name":"烘內派出所","category":"bus"},"geometry":{"type":"Point","coordinates":[121.646559,25.088186]}},{"type":"Feature","properties":{"name":"土巷口","category":"bus"},"geometry":{"type":"Point","coordinates":[121.648244,25.083826]}},{"type":"Feature","properties":{"name":"明園山莊","category":"bus"},"geometry":{"type":"Point","coordinates":[121.648912,25.082423]}},{"type":"Feature","properties":{"name":"川口","category":"bus"},"geometry":{"type":"Point","coordinates":[121.6493127,25.079195]}},{"type":"Feature","properties":{"name":"金龍里","category":"bus"},"geometry":{"type":"Point","coordinates":[121.6310686,25.071147]}},{"type":"Feature","properties":{"name":"北峰里(明峰街)","category":"bus"},"geometry":{"type":"Point","coordinates":[121.6276293,25.069422]}},{"type":"Feature","properties":{"name":"金龍里","category":"bus"},"geometry":{"type":"Point","coordinates":[121.631037,25.071008]}},{"type":"Feature","properties":{"name":"凱旋大地","category":"bus"},"geometry":{"type":"Point","coordinates":[121.650154,25.075489]}},{"type":"Feature","properties":{"name":"川口","category":"bus"},"geometry":{"type":"Point","coordinates":[121.649302,25.079489]}},{"type":"Feature","properties":{"name":"土巷口","category":"bus"},"geometry":{"type":"Point","coordinates":[121.64826,25.084205]}},{"type":"Feature","properties":{"name":"烘內派出所","category":"bus"},"geometry":{"type":"Point","coordinates":[121.6467886,25.088144]}},{"type":"Feature","properties":{"name":"北港國小","category":"bus"},"geometry":{"type":"Point","coordinates":[121.64572,25.089498]}},{"type":"Feature","properties":{"name":"汐萬路三段","category":"bus"},"geometry":{"type":"Point","coordinates":[121.643177,25.091845]}},{"type":"Feature","properties":{"name":"慈惠堂","category":"bus"},"geometry":{"type":"Point","coordinates":[121.644095,25.09349]}},{"type":"Feature","properties":{"name":"堪農山莊","category":"bus"},"geometry":{"type":"Point","coordinates":[121.6422722,25.097152]}},{"type":"Feature","properties":{"name":"烘下","category":"bus"},"geometry":{"type":"Point","coordinates":[121.6421891,25.098663]}},{"type":"Feature","properties":{"name":"月牙泉","category":"bus"},"geometry":{"type":"Point","coordinates":[121.643859,25.103001]}},{"type":"Feature","properties":{"name":"烘內","category":"bus"},"geometry":{"type":"Point","coordinates":[121.644183,25.104595]}},{"type":"Feature","properties":{"name":"四川橋","category":"bus"},"geometry":{"type":"Point","coordinates":[121.644996,25.105042]}},{"type":"Feature","properties":{"name":"凱旋大地","category":"bus"},"geometry":{"type":"Point","coordinates":[121.650181,25.07563]}},{"type":"Feature","properties":{"name":"汐止","category":"bus"},"geometry":{"type":"Point","coordinates":[121.661689061306,25.0691766561076]}},{"type":"Feature","properties":{"name":"中興路","category":"bus"},"geometry":{"type":"Point","coordinates":[121.63512,25.06174]}},{"type":"Feature","properties":{"name":"中興路","category":"bus"},"geometry":{"type":"Point","coordinates":[121.63491,25.06172]}},{"type":"Feature","properties":{"name":"汐止行政中心","category":"bus"},"geometry":{"type":"Point","coordinates":[121.6593,25.06458]}},{"type":"Feature","properties":{"name":"摩登家庭社區","category":"bus"},"geometry":{"type":"Point","coordinates":[121.666069,25.07144]}},{"type":"Feature","properties":{"name":"水都社區","category":"bus"},"geometry":{"type":"Point","coordinates":[121.638239,25.063502]}},{"type":"Feature","properties":{"name":"生活大國社區","category":"bus"},"geometry":{"type":"Point","coordinates":[121.638049,25.068329]}},{"type":"Feature","properties":{"name":"康福里","category":"bus"},"geometry":{"type":"Point","coordinates":[121.6375836,25.068876]}},{"type":"Feature","properties":{"name":"中興路","category":"bus"},"geometry":{"type":"Point","coordinates":[121.6355479,25.061019]}},{"type":"Feature","properties":{"name":"樟樹國小(樟樹一路)","category":"bus"},"geometry":{"type":"Point","coordinates":[121.642564,25.066871]}},{"type":"Feature","properties":{"name":"福德二路","category":"bus"},"geometry":{"type":"Point","coordinates":[121.62598,25.06383]}},{"type":"Feature","properties":{"name":"福德二路","category":"bus"},"geometry":{"type":"Point","coordinates":[121.6261573,25.06360634]}},{"type":"Feature","properties":{"name":"江北橋頭","category":"bus"},"geometry":{"type":"Point","coordinates":[121.6559524,25.067698]}},{"type":"Feature","properties":{"name":"土地公廟","category":"bus"},"geometry":{"type":"Point","coordinates":[121.65074,25.074347]}},{"type":"Feature","properties":{"name":"土地公廟","category":"bus"},"geometry":{"type":"Point","coordinates":[121.65061,25.074246]}},{"type":"Feature","properties":{"name":"江北橋頭","category":"bus"},"geometry":{"type":"Point","coordinates":[121.655982,25.067442]}},{"type":"Feature","properties":{"name":"林肯大郡","category":"bus"},"geometry":{"type":"Point","coordinates":[121.648462,25.090332]}},{"type":"Feature","properties":{"name":"香榭花都","category":"bus"},"geometry":{"type":"Point","coordinates":[121.624393,25.039034]}},{"type":"Feature","properties":{"name":"芳園街","category":"bus"},"geometry":{"type":"Point","coordinates":[121.626005,25.039854]}},{"type":"Feature","properties":{"name":"宏觀社區","category":"bus"},"geometry":{"type":"Point","coordinates":[121.632302,25.040066]}},{"type":"Feature","properties":{"name":"白雲山莊","category":"bus"},"geometry":{"type":"Point","coordinates":[121.6330614,25.039788]}},{"type":"Feature","properties":{"name":"汐碇路石頭公","category":"bus"},"geometry":{"type":"Point","coordinates":[121.638268,25.03881]}},{"type":"Feature","properties":{"name":"研樓社區","category":"bus"},"geometry":{"type":"Point","coordinates":[121.634591,25.03902]}},{"type":"Feature","properties":{"name":"白雲山莊","category":"bus"},"geometry":{"type":"Point","coordinates":[121.6338,25.039825]}},{"type":"Feature","properties":{"name":"研究苑社區","category":"bus"},"geometry":{"type":"Point","coordinates":[121.633677,25.041727]}},{"type":"Feature","properties":{"name":"宏觀社區","category":"bus"},"geometry":{"type":"Point","coordinates":[121.6322,25.040253]}},{"type":"Feature","properties":{"name":"芳園街","category":"bus"},"geometry":{"type":"Point","coordinates":[121.625948,25.039979]}},{"type":"Feature","properties":{"name":"香榭花都","category":"bus"},"geometry":{"type":"Point","coordinates":[121.624146,25.039029]}},{"type":"Feature","properties":{"name":"福安街口","category":"bus"},"geometry":{"type":"Point","coordinates":[121.6635086,25.064471]}},{"type":"Feature","properties":{"name":"秀峰國小","category":"bus"},"geometry":{"type":"Point","coordinates":[121.662143,25.063371]}},{"type":"Feature","properties":{"name":"汐止區公所(仁愛路)","category":"bus"},"geometry":{"type":"Point","coordinates":[121.65929,25.063876]}},{"type":"Feature","properties":{"name":"莊敬街口","category":"bus"},"geometry":{"type":"Point","coordinates":[121.654226,25.060763]}},{"type":"Feature","properties":{"name":"台北小別墅","category":"bus"},"geometry":{"type":"Point","coordinates":[121.655601,25.054347]}},{"type":"Feature","properties":{"name":"白雲里","category":"bus"},"geometry":{"type":"Point","coordinates":[121.657617,25.054229]}},{"type":"Feature","properties":{"name":"白雲社區活動中心","category":"bus"},"geometry":{"type":"Point","coordinates":[121.657009,25.055471]}},{"type":"Feature","properties":{"name":"白雲土地公廟","category":"bus"},"geometry":{"type":"Point","coordinates":[121.654938,25.057345]}},{"type":"Feature","properties":{"name":"莊敬街口","category":"bus"},"geometry":{"type":"Point","coordinates":[121.654582,25.060825]}},{"type":"Feature","properties":{"name":"自強里活動中心","category":"bus"},"geometry":{"type":"Point","coordinates":[121.657312,25.062932]}},{"type":"Feature","properties":{"name":"汐止區公所(仁愛路)","category":"bus"},"geometry":{"type":"Point","coordinates":[121.659129,25.063895]}},{"type":"Feature","properties":{"name":"秀峰國小","category":"bus"},"geometry":{"type":"Point","coordinates":[121.662321,25.063325]}},{"type":"Feature","properties":{"name":"福安街口","category":"bus"},"geometry":{"type":"Point","coordinates":[121.6635868663242,25.064336021033988]}},{"type":"Feature","properties":{"name":"汐止火車站(公園)","category":"bus"},"geometry":{"type":"Point","coordinates":[121.662911,25.068882]}},{"type":"Feature","properties":{"name":"汐止火車站","category":"bus"},"geometry":{"type":"Point","coordinates":[121.662051,25.069141]}},{"type":"Feature","properties":{"name":"自強里活動中心","category":"bus"},"geometry":{"type":"Point","coordinates":[121.657228,25.062767]}},{"type":"Feature","properties":{"name":"青山國中","category":"bus"},"geometry":{"type":"Point","coordinates":[121.655726,25.061225]}},{"type":"Feature","properties":{"name":"福德土地公","category":"bus"},"geometry":{"type":"Point","coordinates":[121.651637,25.052096]}},{"type":"Feature","properties":{"name":"汐碇路光復街169號","category":"bus"},"geometry":{"type":"Point","coordinates":[121.648256,25.047234]}},{"type":"Feature","properties":{"name":"天道清修院","category":"bus"},"geometry":{"type":"Point","coordinates":[121.668506,25.047347]}},{"type":"Feature","properties":{"name":"梅友亭","category":"bus"},"geometry":{"type":"Point","coordinates":[121.677074,25.039151]}},{"type":"Feature","properties":{"name":"白雲茶園","category":"bus"},"geometry":{"type":"Point","coordinates":[121.648122,25.035684]}},{"type":"Feature","properties":{"name":"大崎頭","category":"bus"},"geometry":{"type":"Point","coordinates":[121.671717,25.035343]}},{"type":"Feature","properties":{"name":"天道靈泉","category":"bus"},"geometry":{"type":"Point","coordinates":[121.677007,25.036686]}},{"type":"Feature","properties":{"name":"汐平路一段32號","category":"bus"},"geometry":{"type":"Point","coordinates":[121.682047,25.07055]}},{"type":"Feature","properties":{"name":"石門坑福德宮","category":"bus"},"geometry":{"type":"Point","coordinates":[121.688816,25.066924]}},{"type":"Feature","properties":{"name":"汐平路一段170號路口","category":"bus"},"geometry":{"type":"Point","coordinates":[121.68972,25.066457]}},{"type":"Feature","properties":{"name":"小坑路口","category":"bus"},"geometry":{"type":"Point","coordinates":[121.692877,25.066524]}},{"type":"Feature","properties":{"name":"忠孝橋","category":"bus"},"geometry":{"type":"Point","coordinates":[121.694104,25.06583]}},{"type":"Feature","properties":{"name":"姜子寮路口","category":"bus"},"geometry":{"type":"Point","coordinates":[121.696188,25.063649]}},{"type":"Feature","properties":{"name":"大圓山寺","category":"bus"},"geometry":{"type":"Point","coordinates":[121.697008,25.061955]}},{"type":"Feature","properties":{"name":"東山派出所","category":"bus"},"geometry":{"type":"Point","coordinates":[121.69899,25.060816]}},{"type":"Feature","properties":{"name":"東山國小","category":"bus"},"geometry":{"type":"Point","coordinates":[121.700393,25.059613]}},{"type":"Feature","properties":{"name":"汐平路二段88號路口","category":"bus"},"geometry":{"type":"Point","coordinates":[121.702854,25.054113]}},{"type":"Feature","properties":{"name":"仁愛橋","category":"bus"},"geometry":{"type":"Point","coordinates":[121.703608,25.052014]}},{"type":"Feature","properties":{"name":"汐平路二段88號路口","category":"bus"},"geometry":{"type":"Point","coordinates":[121.703346,25.053531]}},{"type":"Feature","properties":{"name":"東山國小","category":"bus"},"geometry":{"type":"Point","coordinates":[121.700461,25.059691]}},{"type":"Feature","properties":{"name":"東山派出所","category":"bus"},"geometry":{"type":"Point","coordinates":[121.69909,25.060897]}},{"type":"Feature","properties":{"name":"大圓山寺","category":"bus"},"geometry":{"type":"Point","coordinates":[121.697164,25.061967]}},{"type":"Feature","properties":{"name":"姜子寮路口","category":"bus"},"geometry":{"type":"Point","coordinates":[121.696249,25.063909]}},{"type":"Feature","properties":{"name":"忠孝橋","category":"bus"},"geometry":{"type":"Point","coordinates":[121.694209,25.065962]}},{"type":"Feature","properties":{"name":"小坑路口","category":"bus"},"geometry":{"type":"Point","coordinates":[121.691762,25.066657]}},{"type":"Feature","properties":{"name":"汐平路一段182號路口","category":"bus"},"geometry":{"type":"Point","coordinates":[121.69089,25.06648]}},{"type":"Feature","properties":{"name":"石門坑福德宮","category":"bus"},"geometry":{"type":"Point","coordinates":[121.688864,25.0671]}},{"type":"Feature","properties":{"name":"保新街67號","category":"bus"},"geometry":{"type":"Point","coordinates":[121.68585,25.072507]}},{"type":"Feature","properties":{"name":"鹽水洞","category":"bus"},"geometry":{"type":"Point","coordinates":[121.660277,25.076315]}},{"type":"Feature","properties":{"name":"瑞士山莊","category":"bus"},"geometry":{"type":"Point","coordinates":[121.646652,25.110245]}},{"type":"Feature","properties":{"name":"興樺汽車","category":"bus"},"geometry":{"type":"Point","coordinates":[121.645449,25.105936]}},{"type":"Feature","properties":{"name":"瑞松街146號","category":"bus"},"geometry":{"type":"Point","coordinates":[121.645522,25.109937]}},{"type":"Feature","properties":{"name":"瑞松街網球場","category":"bus"},"geometry":{"type":"Point","coordinates":[121.648643,25.110719]}},{"type":"Feature","properties":{"name":"瑞松街199巷口","category":"bus"},"geometry":{"type":"Point","coordinates":[121.645644,25.112898]}},{"type":"Feature","properties":{"name":"興樺汽車","category":"bus"},"geometry":{"type":"Point","coordinates":[121.645375,25.105882]}},{"type":"Feature","properties":{"name":"瑞士山莊一","category":"bus"},"geometry":{"type":"Point","coordinates":[121.647711,25.110103]}},{"type":"Feature","properties":{"name":"連峰街口","category":"bus"},"geometry":{"type":"Point","coordinates":[121.645691,25.080799]}},{"type":"Feature","properties":{"name":"川口橋","category":"bus"},"geometry":{"type":"Point","coordinates":[121.648447,25.080644]}},{"type":"Feature","properties":{"name":"八連變電所","category":"bus"},"geometry":{"type":"Point","coordinates":[121.640889,25.081032]}},{"type":"Feature","properties":{"name":"石潭橋","category":"bus"},"geometry":{"type":"Point","coordinates":[121.638748,25.093275]}},{"type":"Feature","properties":{"name":"雙溪口","category":"bus"},"geometry":{"type":"Point","coordinates":[121.634299,25.095182]}},{"type":"Feature","properties":{"name":"信通橋","category":"bus"},"geometry":{"type":"Point","coordinates":[121.628106,25.108746]}},{"type":"Feature","properties":{"name":"八連溪谷公園","category":"bus"},"geometry":{"type":"Point","coordinates":[121.622789,25.10991]}},{"type":"Feature","properties":{"name":"長青派出所","category":"bus"},"geometry":{"type":"Point","coordinates":[121.605381,25.111005]}},{"type":"Feature","properties":{"name":"長青山莊","category":"bus"},"geometry":{"type":"Point","coordinates":[121.606231,25.112494]}},{"type":"Feature","properties":{"name":"福興宮自強育樂中心","category":"bus"},"geometry":{"type":"Point","coordinates":[121.640369,25.083818]}},{"type":"Feature","properties":{"name":"川口橋","category":"bus"},"geometry":{"type":"Point","coordinates":[121.648342,25.080534]}},{"type":"Feature","properties":{"name":"長青山莊","category":"bus"},"geometry":{"type":"Point","coordinates":[121.606063,25.112543]}},{"type":"Feature","properties":{"name":"國家公園別墅","category":"bus"},"geometry":{"type":"Point","coordinates":[121.60516664327086,25.10990290676615]}},{"type":"Feature","properties":{"name":"八連二抽水站","category":"bus"},"geometry":{"type":"Point","coordinates":[121.642305,25.07917]}},{"type":"Feature","properties":{"name":"五指山森林公園","category":"bus"},"geometry":{"type":"Point","coordinates":[121.604489,25.125715]}},{"type":"Feature","properties":{"name":"同心亭","category":"bus"},"geometry":{"type":"Point","coordinates":[121.599369,25.114707]}},{"type":"Feature","properties":{"name":"翠柏新村","category":"bus"},"geometry":{"type":"Point","coordinates":[121.604607,25.113334]}},{"type":"Feature","properties":{"name":"五指山森林公園","category":"bus"},"geometry":{"type":"Point","coordinates":[121.604346,25.125576]}},{"type":"Feature","properties":{"name":"烘內","category":"bus"},"geometry":{"type":"Point","coordinates":[121.643768,25.104604]}},{"type":"Feature","properties":{"name":"汐萬路一段","category":"bus"},"geometry":{"type":"Point","coordinates":[121.653463,25.071067]}},{"type":"Feature","properties":{"name":"樟樹二路口","category":"bus"},"geometry":{"type":"Point","coordinates":[121.64002,25.061605]}},{"type":"Feature","properties":{"name":"金龍市場","category":"bus"},"geometry":{"type":"Point","coordinates":[121.629422,25.068367]}},{"type":"Feature","properties":{"name":"金龍市場","category":"bus"},"geometry":{"type":"Point","coordinates":[121.629229,25.068357]}},{"type":"Feature","properties":{"name":"樟樹二路口","category":"bus"},"geometry":{"type":"Point","coordinates":[121.639841,25.06151]}},{"type":"Feature","properties":{"name":"伯爵街12巷口","category":"bus"},"geometry":{"type":"Point","coordinates":[121.641202,25.077053]}},{"type":"Feature","properties":{"name":"北峰寺","category":"bus"},"geometry":{"type":"Point","coordinates":[121.63024,25.072844]}},{"type":"Feature","properties":{"name":"北峰寺","category":"bus"},"geometry":{"type":"Point","coordinates":[121.630142,25.072847]}},{"type":"Feature","properties":{"name":"天峰谷","category":"bus"},"geometry":{"type":"Point","coordinates":[121.710795,25.057913]}},{"type":"Feature","properties":{"name":"姜子寮展望台","category":"bus"},"geometry":{"type":"Point","coordinates":[121.712177,25.053103]}},{"type":"Feature","properties":{"name":"迴音谷","category":"bus"},"geometry":{"type":"Point","coordinates":[121.716408,25.044229]}},{"type":"Feature","properties":{"name":"磐石嶺","category":"bus"},"geometry":{"type":"Point","coordinates":[121.71584,25.040827]}},{"type":"Feature","properties":{"name":"平溪國小","category":"bus"},"geometry":{"type":"Point","coordinates":[121.7363133,25.027287]}},{"type":"Feature","properties":{"name":"磐石嶺","category":"bus"},"geometry":{"type":"Point","coordinates":[121.715859,25.040927]}},{"type":"Feature","properties":{"name":"迴音谷","category":"bus"},"geometry":{"type":"Point","coordinates":[121.716574,25.044112]}},{"type":"Feature","properties":{"name":"姜子寮展望台","category":"bus"},"geometry":{"type":"Point","coordinates":[121.712267,25.052955]}},{"type":"Feature","properties":{"name":"頂石硿仔","category":"bus"},"geometry":{"type":"Point","coordinates":[121.710187,25.057604]}},{"type":"Feature","properties":{"name":"天峰谷","category":"bus"},"geometry":{"type":"Point","coordinates":[121.710952,25.057977]}},{"type":"Feature","properties":{"name":"仁愛橋","category":"bus"},"geometry":{"type":"Point","coordinates":[121.703818,25.052091]}},{"type":"Feature","properties":{"name":"南港橋頭","category":"bus"},"geometry":{"type":"Point","coordinates":[121.621437,25.053981]}},{"type":"Feature","properties":{"name":"橫科","category":"bus"},"geometry":{"type":"Point","coordinates":[121.6214471,25.054811]}},{"type":"Feature","properties":{"name":"汐止國中","category":"bus"},"geometry":{"type":"Point","coordinates":[121.658841,25.067358]}},{"type":"Feature","properties":{"name":"福安宮","category":"bus"},"geometry":{"type":"Point","coordinates":[121.641383,25.070234]}},{"type":"Feature","properties":{"name":"經貿園區","category":"bus"},"geometry":{"type":"Point","coordinates":[121.621237,25.066636]}},{"type":"Feature","properties":{"name":"白馬山莊","category":"bus"},"geometry":{"type":"Point","coordinates":[121.623174,25.076956]}},{"type":"Feature","properties":{"name":"伯爵街52巷口","category":"bus"},"geometry":{"type":"Point","coordinates":[121.638323,25.080803]}}]}
