{"type":"FeatureCollection","features":[{"type":"Feature","properties":{"id":"7ae69256e5f8f8e576473025","name":"新北市立圖書館汐止北峰圖書閱覽室","category":"library","facilityType":"public-library","sourceUpdatedAt":"2026-07-21T02:59:00.336Z"},"geometry":{"type":"Point","coordinates":[121.631708,25.063989]}},{"type":"Feature","properties":{"id":"d9527599da018511ba169fa9","name":"新北市立圖書館汐止橫科圖書閱覽室","category":"library","facilityType":"public-library","sourceUpdatedAt":"2026-07-21T02:59:00.336Z"},"geometry":{"type":"Point","coordinates":[121.620148,25.050522]}},{"type":"Feature","properties":{"id":"f04f354feca6f6504d747517","name":"新北市立圖書館汐止大同分館","category":"library","facilityType":"public-library","sourceUpdatedAt":"2026-07-21T02:59:00.336Z"},"geometry":{"type":"Point","coordinates":[121.6595,25.0682]}},{"type":"Feature","properties":{"id":"5702dbfb2ec71d49f5bc4a0c","name":"新北市立圖書館汐止江北分館","category":"library","facilityType":"public-library","sourceUpdatedAt":"2026-07-21T02:59:00.336Z"},"geometry":{"type":"Point","coordinates":[121.6545,25.0701]}},{"type":"Feature","properties":{"id":"4409e5677286cd6803bad288","name":"新北市立圖書館汐止分館","category":"library","facilityType":"public-library","sourceUpdatedAt":"2026-07-21T02:59:00.336Z"},"geometry":{"type":"Point","coordinates":[121.659,25.0638]}},{"type":"Feature","properties":{"id":"c763da0d362b35ec9997849d","name":"新北市立圖書館汐止長安分館","category":"library","facilityType":"public-library","sourceUpdatedAt":"2026-07-21T02:59:00.336Z"},"geometry":{"type":"Point","coordinates":[121.6706,25.0791]}},{"type":"Feature","properties":{"id":"09e0eab0787244d6448c878c","name":"新北市立圖書館汐止茄苳分館","category":"library","facilityType":"public-library","sourceUpdatedAt":"2026-07-21T02:59:00.336Z"},"geometry":{"type":"Point","coordinates":[121.6721,25.0692]}}]}
