{"type":"FeatureCollection","features":[{"type":"Feature","properties":{"id":"ecf5fec0296a80c257c6a773","name":"圓舞曲社區停車場","category":"parking","facilityType":"offstreet-parking","sourceUpdatedAt":"2026-07-21T02:58:29.534Z","carCapacity":23},"geometry":{"type":"Point","coordinates":[121.3595575,25.0733932]}},{"type":"Feature","properties":{"id":"7c4c54bfb17bca61e15ae56e","name":"全聯林口忠孝停車場","category":"parking","facilityType":"offstreet-parking","sourceUpdatedAt":"2026-07-21T02:58:29.534Z","carCapacity":6},"geometry":{"type":"Point","coordinates":[121.364318,25.075444]}},{"type":"Feature","properties":{"id":"abe7058228b58cf5d6d6635f","name":"永雄御花園停車場","category":"parking","facilityType":"offstreet-parking","sourceUpdatedAt":"2026-07-21T02:58:29.534Z","carCapacity":19},"geometry":{"type":"Point","coordinates":[121.3560169,25.0748192]}},{"type":"Feature","properties":{"id":"c3896ca6ff967d47c411e48f","name":"富堡晶璽收費停車場","category":"parking","facilityType":"offstreet-parking","sourceUpdatedAt":"2026-07-21T02:58:29.534Z","carCapacity":21},"geometry":{"type":"Point","coordinates":[121.3720755,25.0777437]}},{"type":"Feature","properties":{"id":"bfb7f7e8565d67a373a176ad","name":"春見築收費停車場","category":"parking","facilityType":"offstreet-parking","sourceUpdatedAt":"2026-07-21T02:58:29.534Z","carCapacity":43},"geometry":{"type":"Point","coordinates":[121.3629796,25.0727809]}},{"type":"Feature","properties":{"id":"d8c02f93208bd7eb3b63bb5b","name":"麗江清久社區停車場","category":"parking","facilityType":"offstreet-parking","sourceUpdatedAt":"2026-07-21T02:58:29.534Z","carCapacity":16},"geometry":{"type":"Point","coordinates":[121.3643863,25.073181]}},{"type":"Feature","properties":{"id":"090bfb93448590c82105e081","name":"富堡晶宴收費停車場","category":"parking","facilityType":"offstreet-parking","sourceUpdatedAt":"2026-07-21T02:58:29.534Z","carCapacity":30},"geometry":{"type":"Point","coordinates":[121.3660647,25.0759052]}},{"type":"Feature","properties":{"id":"80fb8b4948835d6b8fc47e25","name":"南方沐林收費停車場","category":"parking","facilityType":"offstreet-parking","sourceUpdatedAt":"2026-07-21T02:58:29.534Z","carCapacity":36},"geometry":{"type":"Point","coordinates":[121.3569399,25.0769205]}},{"type":"Feature","properties":{"id":"fe11aeaa93b46a0345fb3f0a","name":"林口區力行段臨時路外停車場","category":"parking","facilityType":"offstreet-parking","sourceUpdatedAt":"2026-07-21T02:58:29.534Z","carCapacity":38},"geometry":{"type":"Point","coordinates":[121.3695858,25.0772272]}},{"type":"Feature","properties":{"id":"d3a3f1439fb794fb4dc193ce","name":"林口交響苑停車場","category":"parking","facilityType":"offstreet-parking","sourceUpdatedAt":"2026-07-21T02:58:29.534Z","carCapacity":153},"geometry":{"type":"Point","coordinates":[121.3619321,25.0708641]}},{"type":"Feature","properties":{"id":"c1b29f25443112ddb0d56fa7","name":"國立臺灣師範大學林口校區資訊與教學大樓地下停車場","category":"parking","facilityType":"offstreet-parking","sourceUpdatedAt":"2026-07-21T02:58:29.534Z","carCapacity":69},"geometry":{"type":"Point","coordinates":[121.4019948,25.0671181]}},{"type":"Feature","properties":{"id":"50f18c018cde192d54a70581","name":"冠富林六期停車場","category":"parking","facilityType":"offstreet-parking","sourceUpdatedAt":"2026-07-21T02:58:29.534Z","carCapacity":12},"geometry":{"type":"Point","coordinates":[121.3831715,25.0756544]}},{"type":"Feature","properties":{"id":"01521c8ce51758f4d9b07b9d","name":"佳音林口文化二路停車場","category":"parking","facilityType":"offstreet-parking","sourceUpdatedAt":"2026-07-21T02:58:29.534Z","carCapacity":43},"geometry":{"type":"Point","coordinates":[121.3759213,25.0785935]}},{"type":"Feature","properties":{"id":"f7a225e7f463c24d1457e6af","name":"禮頓企業有限公司林口仁愛站停車場","category":"parking","facilityType":"offstreet-parking","sourceUpdatedAt":"2026-07-21T02:58:29.534Z","carCapacity":26},"geometry":{"type":"Point","coordinates":[121.3862398,25.0763605]}},{"type":"Feature","properties":{"id":"5a771feeeb9fe0c0cf3683a0","name":"台灣聯通林口新寮停車場","category":"parking","facilityType":"offstreet-parking","sourceUpdatedAt":"2026-07-21T02:58:29.534Z","carCapacity":29},"geometry":{"type":"Point","coordinates":[121.3954429,25.0757386]}},{"type":"Feature","properties":{"id":"4c400a00b72e8c840bc9fd96","name":"台灣聯通林口文林停車場","category":"parking","facilityType":"offstreet-parking","sourceUpdatedAt":"2026-07-21T02:58:29.534Z","carCapacity":33},"geometry":{"type":"Point","coordinates":[121.36791,25.07528]}},{"type":"Feature","properties":{"id":"fd9a33bd7d657f3cabe8e485","name":"廣停二平面停車場","category":"parking","facilityType":"offstreet-parking","sourceUpdatedAt":"2026-07-21T02:58:29.534Z","carCapacity":111},"geometry":{"type":"Point","coordinates":[121.370987,25.0764256]}},{"type":"Feature","properties":{"id":"19a42ae3996ce420922b6591","name":"廣停三平面停車場","category":"parking","facilityType":"offstreet-parking","sourceUpdatedAt":"2026-07-21T02:58:29.534Z","carCapacity":70},"geometry":{"type":"Point","coordinates":[121.3696638,25.0728538]}},{"type":"Feature","properties":{"id":"cf9bfcc6ceb65d7a6f79ddd3","name":"廣停四平面停車場","category":"parking","facilityType":"offstreet-parking","sourceUpdatedAt":"2026-07-21T02:58:29.534Z","carCapacity":31},"geometry":{"type":"Point","coordinates":[121.3673354,25.0718845]}},{"type":"Feature","properties":{"id":"bad55243ece5b9d9dac07b3f","name":"廣停六平面停車場","category":"parking","facilityType":"offstreet-parking","sourceUpdatedAt":"2026-07-21T02:58:29.534Z","carCapacity":48},"geometry":{"type":"Point","coordinates":[121.3719606,25.0754752]}},{"type":"Feature","properties":{"id":"fb9a740e0542d7d4989f6524","name":"廣停七平面停車場","category":"parking","facilityType":"offstreet-parking","sourceUpdatedAt":"2026-07-21T02:58:29.534Z","carCapacity":83},"geometry":{"type":"Point","coordinates":[121.3667866,25.0713171]}},{"type":"Feature","properties":{"id":"8d134edaa93a5aae96f02271","name":"林口忠孝路停車場","category":"parking","facilityType":"offstreet-parking","sourceUpdatedAt":"2026-07-21T02:58:29.534Z","carCapacity":96},"geometry":{"type":"Point","coordinates":[121.3725535,25.0696208]}},{"type":"Feature","properties":{"id":"9592a91ac04453a9e216f06c","name":"嘟嘟房林口文化三路3站停車場","category":"parking","facilityType":"offstreet-parking","sourceUpdatedAt":"2026-07-21T02:58:29.534Z","carCapacity":63},"geometry":{"type":"Point","coordinates":[121.3775807,25.0847158]}},{"type":"Feature","properties":{"id":"1ed69b30787c86ffcc366f87","name":"九樹社區停車場","category":"parking","facilityType":"offstreet-parking","sourceUpdatedAt":"2026-07-21T02:58:29.534Z","carCapacity":46},"geometry":{"type":"Point","coordinates":[121.3700647,25.0710201]}},{"type":"Feature","properties":{"id":"153e5f03d013ff5830e7cbc5","name":"MITSUI  OUTLET  PARK  收費停車場","category":"parking","facilityType":"offstreet-parking","sourceUpdatedAt":"2026-07-21T02:58:29.534Z","carCapacity":2000},"geometry":{"type":"Point","coordinates":[121.3644544,25.071061]}},{"type":"Feature","properties":{"id":"5f1d2a01852bbd807c2ce12c","name":"博客停車-文化北場停車場","category":"parking","facilityType":"offstreet-parking","sourceUpdatedAt":"2026-07-21T02:58:29.534Z","carCapacity":10},"geometry":{"type":"Point","coordinates":[121.3570084,25.0701212]}},{"type":"Feature","properties":{"id":"9738d25357a28fb120530386","name":"嘟嘟房林口文化一路站停車場","category":"parking","facilityType":"offstreet-parking","sourceUpdatedAt":"2026-07-21T02:58:29.534Z","carCapacity":71},"geometry":{"type":"Point","coordinates":[121.374346,25.0697273]}},{"type":"Feature","properties":{"id":"3c4b966f1526e1f2c71210b8","name":"胚空間停車場","category":"parking","facilityType":"offstreet-parking","sourceUpdatedAt":"2026-07-21T02:58:29.534Z","carCapacity":16},"geometry":{"type":"Point","coordinates":[121.3583307,25.0684036]}},{"type":"Feature","properties":{"id":"b9e07ed7c059030d81c7622c","name":"A9林口站停車場","category":"parking","facilityType":"offstreet-parking","sourceUpdatedAt":"2026-07-21T02:58:29.534Z","carCapacity":14},"geometry":{"type":"Point","coordinates":[121.3615458,25.0662471]}},{"type":"Feature","properties":{"id":"6881372ac96714bbdac51867","name":"家樂福林口店停車場","category":"parking","facilityType":"offstreet-parking","sourceUpdatedAt":"2026-07-21T02:58:29.534Z","carCapacity":134},"geometry":{"type":"Point","coordinates":[121.3729465,25.0799372]}},{"type":"Feature","properties":{"id":"a849ad28539efc67e5ab32af","name":"竹城長崎收費停車場","category":"parking","facilityType":"offstreet-parking","sourceUpdatedAt":"2026-07-21T02:58:29.534Z","carCapacity":26},"geometry":{"type":"Point","coordinates":[121.3742936,25.0811932]}},{"type":"Feature","properties":{"id":"edddde4c5abb9f9f79ddc517","name":"禮御停車場","category":"parking","facilityType":"offstreet-parking","sourceUpdatedAt":"2026-07-21T02:58:29.534Z","carCapacity":26},"geometry":{"type":"Point","coordinates":[121.3760753,25.080963]}},{"type":"Feature","properties":{"id":"8d8f765e85d36e029a5cdc49","name":"USPACE林口東湖路停車場","category":"parking","facilityType":"offstreet-parking","sourceUpdatedAt":"2026-07-21T02:58:29.534Z","carCapacity":20},"geometry":{"type":"Point","coordinates":[121.3828659,25.0733169]}},{"type":"Feature","properties":{"id":"864c03b502a58de1762fdf04","name":"新北市立林口高中地下停車場","category":"parking","facilityType":"offstreet-parking","sourceUpdatedAt":"2026-07-21T02:58:29.534Z","carCapacity":40},"geometry":{"type":"Point","coordinates":[121.3803377,25.0734886]}},{"type":"Feature","properties":{"id":"42501fb567b0b187fdfb62aa","name":"東湖國小地下停車場","category":"parking","facilityType":"offstreet-parking","sourceUpdatedAt":"2026-07-21T02:58:29.534Z","carCapacity":85},"geometry":{"type":"Point","coordinates":[121.3820046,25.0759102]}},{"type":"Feature","properties":{"id":"dfe10bb1773404614e618036","name":"禮頓企業有限公司忠孝路停車場","category":"parking","facilityType":"offstreet-parking","sourceUpdatedAt":"2026-07-21T02:58:29.534Z","carCapacity":23},"geometry":{"type":"Point","coordinates":[121.3706873,25.0703883]}},{"type":"Feature","properties":{"id":"e23de432f3e037aecb8fd826","name":"樺山企業忠孝停車場","category":"parking","facilityType":"offstreet-parking","sourceUpdatedAt":"2026-07-21T02:58:29.534Z","carCapacity":53},"geometry":{"type":"Point","coordinates":[121.3704797,25.0705794]}},{"type":"Feature","properties":{"id":"4432ef50f9dfbb76b42fa56c","name":"樺山企業公園停車場","category":"parking","facilityType":"offstreet-parking","sourceUpdatedAt":"2026-07-21T02:58:29.534Z","carCapacity":43},"geometry":{"type":"Point","coordinates":[121.3688823,25.0700759]}},{"type":"Feature","properties":{"id":"a7e2484e363319c5c51a4925","name":"永豐興林口南勢停車場","category":"parking","facilityType":"offstreet-parking","sourceUpdatedAt":"2026-07-21T02:58:29.534Z","carCapacity":38},"geometry":{"type":"Point","coordinates":[121.3646219,25.0737257]}},{"type":"Feature","properties":{"id":"0974826d484588df74a14343","name":"林口區停一平面停車場","category":"parking","facilityType":"offstreet-parking","sourceUpdatedAt":"2026-07-21T02:58:29.534Z","carCapacity":56},"geometry":{"type":"Point","coordinates":[121.3880185,25.0843449]}},{"type":"Feature","properties":{"id":"5f3e1f373a5c681d3e60cbe5","name":"林口區停二平面停車場","category":"parking","facilityType":"offstreet-parking","sourceUpdatedAt":"2026-07-21T02:58:29.534Z","carCapacity":84},"geometry":{"type":"Point","coordinates":[121.3896909,25.0818397]}},{"type":"Feature","properties":{"id":"32a4096fb956ced38b1831f4","name":"林口區停三立體停車場","category":"parking","facilityType":"offstreet-parking","sourceUpdatedAt":"2026-07-21T02:58:29.534Z","carCapacity":141},"geometry":{"type":"Point","coordinates":[121.3891804,25.0787219]}},{"type":"Feature","properties":{"id":"15b42b788163b5236339be4a","name":"林口區停四平面停車場","category":"parking","facilityType":"offstreet-parking","sourceUpdatedAt":"2026-07-21T02:58:29.534Z","carCapacity":54},"geometry":{"type":"Point","coordinates":[121.3900815,25.0768281]}},{"type":"Feature","properties":{"id":"aeba2c58e99b5799096f4ddd","name":"林口區停五平面停車場","category":"parking","facilityType":"offstreet-parking","sourceUpdatedAt":"2026-07-21T02:58:29.534Z","carCapacity":43},"geometry":{"type":"Point","coordinates":[121.3937339,25.0782178]}},{"type":"Feature","properties":{"id":"d71628f7579ea587fe4465fc","name":"林口區停七平面停車場","category":"parking","facilityType":"offstreet-parking","sourceUpdatedAt":"2026-07-21T02:58:29.534Z","carCapacity":38},"geometry":{"type":"Point","coordinates":[121.3954369,25.0760375]}},{"type":"Feature","properties":{"id":"34724ff5aaea04e2995d59a1","name":"林口區行政段226地號平面停車場","category":"parking","facilityType":"offstreet-parking","sourceUpdatedAt":"2026-07-21T02:58:29.534Z","carCapacity":67},"geometry":{"type":"Point","coordinates":[121.393949,25.077195]}},{"type":"Feature","properties":{"id":"908125e56bf851185541736f","name":"林口舊街臨時平面停車場","category":"parking","facilityType":"offstreet-parking","sourceUpdatedAt":"2026-07-21T02:58:29.534Z","carCapacity":67},"geometry":{"type":"Point","coordinates":[121.3916762,25.076423]}},{"type":"Feature","properties":{"id":"e6148dbebf5883cad29b4760","name":"林口區停六平面停車場","category":"parking","facilityType":"offstreet-parking","sourceUpdatedAt":"2026-07-21T02:58:29.534Z","carCapacity":36},"geometry":{"type":"Point","coordinates":[121.3948769,25.0760616]}},{"type":"Feature","properties":{"id":"140fa0f57b95f1a860603169","name":"Times林口仁愛路2停車場","category":"parking","facilityType":"offstreet-parking","sourceUpdatedAt":"2026-07-21T02:58:29.534Z","carCapacity":21},"geometry":{"type":"Point","coordinates":[121.387321,25.0769211]}},{"type":"Feature","properties":{"id":"ee087a9b4169a8099d1b8cc2","name":"USPACE林口仁愛停車場","category":"parking","facilityType":"offstreet-parking","sourceUpdatedAt":"2026-07-21T02:58:29.534Z","carCapacity":25},"geometry":{"type":"Point","coordinates":[121.3883062,25.0762306]}},{"type":"Feature","properties":{"id":"a6e598916e78f2623ca903fc","name":"嘟嘟房林口南勢站停車場","category":"parking","facilityType":"offstreet-parking","sourceUpdatedAt":"2026-07-21T02:58:29.534Z","carCapacity":28},"geometry":{"type":"Point","coordinates":[121.3582269,25.0759983]}},{"type":"Feature","properties":{"id":"d2137fafdee4fb96c8df6a29","name":"永豐興林口民權停車場","category":"parking","facilityType":"offstreet-parking","sourceUpdatedAt":"2026-07-21T02:58:29.534Z","carCapacity":26},"geometry":{"type":"Point","coordinates":[121.3713707,25.0803718]}},{"type":"Feature","properties":{"id":"be5f91e356c2d24eb2574354","name":"長耀挹品停車場","category":"parking","facilityType":"offstreet-parking","sourceUpdatedAt":"2026-07-21T02:58:29.534Z","carCapacity":49},"geometry":{"type":"Point","coordinates":[121.373752,25.0797727]}},{"type":"Feature","properties":{"id":"e786670972a79b5115fa6c04","name":"萬寮停車場","category":"parking","facilityType":"offstreet-parking","sourceUpdatedAt":"2026-07-21T02:58:29.534Z","carCapacity":18},"geometry":{"type":"Point","coordinates":[121.4042497,25.091534]}},{"type":"Feature","properties":{"id":"e544c313d0d04fb27a43c752","name":"MITSUI OUTLET PARK 林口二館收費停車場","category":"parking","facilityType":"offstreet-parking","sourceUpdatedAt":"2026-07-21T02:58:29.534Z","carCapacity":1121},"geometry":{"type":"Point","coordinates":[121.3646291,25.06813]}},{"type":"Feature","properties":{"id":"6aa2c4ee57b470cefeba9454","name":"永豐興林口中山停車場","category":"parking","facilityType":"offstreet-parking","sourceUpdatedAt":"2026-07-21T02:58:29.534Z","carCapacity":33},"geometry":{"type":"Point","coordinates":[121.3780756,25.0834967]}},{"type":"Feature","properties":{"id":"66a80287d219412a07ea0087","name":"林口世大運選手村社會住宅地下停車場A區","category":"parking","facilityType":"offstreet-parking","sourceUpdatedAt":"2026-07-21T02:58:29.534Z","carCapacity":697},"geometry":{"type":"Point","coordinates":[121.375623,25.077717]}},{"type":"Feature","properties":{"id":"2bb337dfb5265d69fa59cac5","name":"林口世大運選手村社會住宅地下停車B區","category":"parking","facilityType":"offstreet-parking","sourceUpdatedAt":"2026-07-21T02:58:29.534Z","carCapacity":551},"geometry":{"type":"Point","coordinates":[121.376729,25.075724]}},{"type":"Feature","properties":{"id":"8fd2abffdad0fad118d54efd","name":"林口世大運選手村社會住宅地下停車場C區","category":"parking","facilityType":"offstreet-parking","sourceUpdatedAt":"2026-07-21T02:58:29.534Z","carCapacity":663},"geometry":{"type":"Point","coordinates":[121.378871,25.075255]}},{"type":"Feature","properties":{"id":"6f76280ec203dba389c4da47","name":"林口世大運選手村社會住宅地下停車場D區","category":"parking","facilityType":"offstreet-parking","sourceUpdatedAt":"2026-07-21T02:58:29.534Z","carCapacity":850},"geometry":{"type":"Point","coordinates":[121.376458,25.073323]}},{"type":"Feature","properties":{"id":"771c83aaeed6f298fa33edcc","name":"林口區行政園區平面停車場","category":"parking","facilityType":"offstreet-parking","sourceUpdatedAt":"2026-07-21T02:58:29.534Z","carCapacity":82},"geometry":{"type":"Point","coordinates":[121.3644599,25.0695515]}},{"type":"Feature","properties":{"id":"c1a0203ebc8112b24ba4a5a1","name":"博客停車-寶雅林口仁愛場停車場","category":"parking","facilityType":"offstreet-parking","sourceUpdatedAt":"2026-07-21T02:58:29.534Z","carCapacity":8},"geometry":{"type":"Point","coordinates":[121.3852673,25.0757257]}},{"type":"Feature","properties":{"id":"9364b47a6db8d8d117e9bef0","name":"博客停車-寶雅林口文化場停車場","category":"parking","facilityType":"offstreet-parking","sourceUpdatedAt":"2026-07-21T02:58:29.534Z","carCapacity":10},"geometry":{"type":"Point","coordinates":[121.3613349,25.0686672]}},{"type":"Feature","properties":{"id":"a0119e863c3ceee80a56c7c7","name":"林口力行停車場","category":"parking","facilityType":"offstreet-parking","sourceUpdatedAt":"2026-07-21T02:58:29.534Z","carCapacity":20},"geometry":{"type":"Point","coordinates":[121.3738775,25.0822614]}},{"type":"Feature","properties":{"id":"90d1611fb2337b51283892b7","name":"Times林口惠民街停車場","category":"parking","facilityType":"offstreet-parking","sourceUpdatedAt":"2026-07-21T02:58:29.534Z","carCapacity":11},"geometry":{"type":"Point","coordinates":[121.3577352,25.0664378]}},{"type":"Feature","properties":{"id":"9b29d5ac23441624d2083bb2","name":"環球購物中心林口A9停車場","category":"parking","facilityType":"offstreet-parking","sourceUpdatedAt":"2026-07-21T02:58:29.534Z","carCapacity":91},"geometry":{"type":"Point","coordinates":[121.3615881,25.0661296]}},{"type":"Feature","properties":{"id":"1453bf350b63608b8fed9e03","name":"Times林口民富街停車場","category":"parking","facilityType":"offstreet-parking","sourceUpdatedAt":"2026-07-21T02:58:29.534Z","carCapacity":19},"geometry":{"type":"Point","coordinates":[121.370732,25.0753555]}},{"type":"Feature","properties":{"id":"565ce5213a3c0959aefa0432","name":"林口信義路停車場","category":"parking","facilityType":"offstreet-parking","sourceUpdatedAt":"2026-07-21T02:58:29.534Z","carCapacity":39},"geometry":{"type":"Point","coordinates":[121.3800639,25.0798605]}},{"type":"Feature","properties":{"id":"6325d941bf8770d50308fade","name":"樺山企業頭湖二站停車場","category":"parking","facilityType":"offstreet-parking","sourceUpdatedAt":"2026-07-21T02:58:29.534Z","carCapacity":16},"geometry":{"type":"Point","coordinates":[121.3739874,25.0822124]}},{"type":"Feature","properties":{"id":"db502e22a08bed7d80e807b2","name":"Times林口中山路停車場","category":"parking","facilityType":"offstreet-parking","sourceUpdatedAt":"2026-07-21T02:58:29.534Z","carCapacity":22},"geometry":{"type":"Point","coordinates":[121.3821843,25.0814223]}},{"type":"Feature","properties":{"id":"87b1aaf7a2b11b3f056f13e3","name":"Times林口仁愛路第3停車場","category":"parking","facilityType":"offstreet-parking","sourceUpdatedAt":"2026-07-21T02:58:29.534Z","carCapacity":17},"geometry":{"type":"Point","coordinates":[121.388106,25.0765525]}},{"type":"Feature","properties":{"id":"c1bb138d6494a9cdf0f15209","name":"富山林口中山路停車場","category":"parking","facilityType":"offstreet-parking","sourceUpdatedAt":"2026-07-21T02:58:29.534Z","carCapacity":24},"geometry":{"type":"Point","coordinates":[121.3820568,25.0815698]}},{"type":"Feature","properties":{"id":"3d716c5503e784fd995d1241","name":"禮頓企業有限公司林口中山站停車場","category":"parking","facilityType":"offstreet-parking","sourceUpdatedAt":"2026-07-21T02:58:29.534Z","carCapacity":38},"geometry":{"type":"Point","coordinates":[121.3803147,25.0824067]}},{"type":"Feature","properties":{"id":"aec1c3796e8caa62fc0a677e","name":"城市車旅林口同學匯停車場","category":"parking","facilityType":"offstreet-parking","sourceUpdatedAt":"2026-07-21T02:58:29.534Z","carCapacity":13},"geometry":{"type":"Point","coordinates":[121.3665036,25.0725014]}},{"type":"Feature","properties":{"id":"2dafd290f54c821b23e72507","name":"Times林口文化三路一段停車場","category":"parking","facilityType":"offstreet-parking","sourceUpdatedAt":"2026-07-21T02:58:29.534Z","carCapacity":60},"geometry":{"type":"Point","coordinates":[121.3610547,25.0704699]}},{"type":"Feature","properties":{"id":"cfab6fa73d8221293bcd1182","name":"台灣聯通新林停車場","category":"parking","facilityType":"offstreet-parking","sourceUpdatedAt":"2026-07-21T02:58:29.534Z","carCapacity":16},"geometry":{"type":"Point","coordinates":[121.3586971,25.072711]}},{"type":"Feature","properties":{"id":"384281bb30fbf612105d78a6","name":"林口中北一街場停車場","category":"parking","facilityType":"offstreet-parking","sourceUpdatedAt":"2026-07-21T02:58:29.534Z","carCapacity":9},"geometry":{"type":"Point","coordinates":[121.3856721,25.088494]}},{"type":"Feature","properties":{"id":"f7eacc29161e95329a5d4497","name":"樺山停車場","category":"parking","facilityType":"offstreet-parking","sourceUpdatedAt":"2026-07-21T02:58:29.534Z","carCapacity":42},"geometry":{"type":"Point","coordinates":[121.366829,25.06653]}},{"type":"Feature","properties":{"id":"b5405b6bf0d747909c19dc5a","name":"禮頓企業有限公司林口文化路停車場","category":"parking","facilityType":"offstreet-parking","sourceUpdatedAt":"2026-07-21T02:58:29.534Z","carCapacity":16},"geometry":{"type":"Point","coordinates":[121.368325,25.0706596]}}]}
