{"type":"FeatureCollection","features":[{"type":"Feature","properties":{"name":"中興路三段","category":"bus"},"geometry":{"type":"Point","coordinates":[121.44217,25.08137]}},{"type":"Feature","properties":{"name":"中興路三段","category":"bus"},"geometry":{"type":"Point","coordinates":[121.4415022,25.08207123]}},{"type":"Feature","properties":{"name":"成州國小","category":"bus"},"geometry":{"type":"Point","coordinates":[121.451025,25.099578]}},{"type":"Feature","properties":{"name":"成州國小","category":"bus"},"geometry":{"type":"Point","coordinates":[121.4507744,25.09954372]}},{"type":"Feature","properties":{"name":"政錩汽車","category":"bus"},"geometry":{"type":"Point","coordinates":[121.4538968,25.066758]}},{"type":"Feature","properties":{"name":"道義橋","category":"bus"},"geometry":{"type":"Point","coordinates":[121.4342704,25.088742]}},{"type":"Feature","properties":{"name":"五福路","category":"bus"},"geometry":{"type":"Point","coordinates":[121.432842,25.090123]}},{"type":"Feature","properties":{"name":"五福路圓環","category":"bus"},"geometry":{"type":"Point","coordinates":[121.4320589,25.091088]}},{"type":"Feature","properties":{"name":"五福路","category":"bus"},"geometry":{"type":"Point","coordinates":[121.4327065,25.090074]}},{"type":"Feature","properties":{"name":"道義橋","category":"bus"},"geometry":{"type":"Point","coordinates":[121.434078,25.088915]}},{"type":"Feature","properties":{"name":"凌雲寺","category":"bus"},"geometry":{"type":"Point","coordinates":[121.4243326,25.124288]}},{"type":"Feature","properties":{"name":"觀音里","category":"bus"},"geometry":{"type":"Point","coordinates":[121.4270951,25.122376]}},{"type":"Feature","properties":{"name":"福隆山","category":"bus"},"geometry":{"type":"Point","coordinates":[121.4276712,25.119076]}},{"type":"Feature","properties":{"name":"觀音山","category":"bus"},"geometry":{"type":"Point","coordinates":[121.4315412,25.117008]}},{"type":"Feature","properties":{"name":"凌雲路三段","category":"bus"},"geometry":{"type":"Point","coordinates":[121.4313491,25.113886]}},{"type":"Feature","properties":{"name":"中坑","category":"bus"},"geometry":{"type":"Point","coordinates":[121.4300804,25.11035]}},{"type":"Feature","properties":{"name":"觀音坑","category":"bus"},"geometry":{"type":"Point","coordinates":[121.431003,25.108319]}},{"type":"Feature","properties":{"name":"旗杆湖","category":"bus"},"geometry":{"type":"Point","coordinates":[121.4314885,25.106007]}},{"type":"Feature","properties":{"name":"集福里","category":"bus"},"geometry":{"type":"Point","coordinates":[121.4392173,25.102896]}},{"type":"Feature","properties":{"name":"忠義橋","category":"bus"},"geometry":{"type":"Point","coordinates":[121.4476301,25.102678]}},{"type":"Feature","properties":{"name":"成州市場","category":"bus"},"geometry":{"type":"Point","coordinates":[121.450547,25.10138]}},{"type":"Feature","properties":{"name":"忠義橋","category":"bus"},"geometry":{"type":"Point","coordinates":[121.4474651,25.102789]}},{"type":"Feature","properties":{"name":"集福里","category":"bus"},"geometry":{"type":"Point","coordinates":[121.4394171,25.102947]}},{"type":"Feature","properties":{"name":"觀音坑","category":"bus"},"geometry":{"type":"Point","coordinates":[121.431145,25.108482]}},{"type":"Feature","properties":{"name":"凌雲路三段","category":"bus"},"geometry":{"type":"Point","coordinates":[121.431583,25.113893]}},{"type":"Feature","properties":{"name":"觀音山","category":"bus"},"geometry":{"type":"Point","coordinates":[121.4317505,25.117115]}},{"type":"Feature","properties":{"name":"福隆山","category":"bus"},"geometry":{"type":"Point","coordinates":[121.4279779,25.119395]}},{"type":"Feature","properties":{"name":"凌雲寺","category":"bus"},"geometry":{"type":"Point","coordinates":[121.4244359,25.124397]}},{"type":"Feature","properties":{"name":"凌雲禪寺","category":"bus"},"geometry":{"type":"Point","coordinates":[121.423554,25.126572]}},{"type":"Feature","properties":{"name":"凌雲禪寺一","category":"bus"},"geometry":{"type":"Point","coordinates":[121.423097,25.124512]}},{"type":"Feature","properties":{"name":"凌雲禪寺一","category":"bus"},"geometry":{"type":"Point","coordinates":[121.423295,25.124818]}},{"type":"Feature","properties":{"name":"凌雲禪寺","category":"bus"},"geometry":{"type":"Point","coordinates":[121.423849,25.126946]}},{"type":"Feature","properties":{"name":"成德分部","category":"bus"},"geometry":{"type":"Point","coordinates":[121.4507567,25.103197]}},{"type":"Feature","properties":{"name":"天乙路","category":"bus"},"geometry":{"type":"Point","coordinates":[121.448282,25.104174]}},{"type":"Feature","properties":{"name":"忠義橋","category":"bus"},"geometry":{"type":"Point","coordinates":[121.4486531,25.102796]}},{"type":"Feature","properties":{"name":"天乙路","category":"bus"},"geometry":{"type":"Point","coordinates":[121.4483966,25.104069]}},{"type":"Feature","properties":{"name":"成德分部","category":"bus"},"geometry":{"type":"Point","coordinates":[121.450785,25.103064]}},{"type":"Feature","properties":{"name":"巡守隊","category":"bus"},"geometry":{"type":"Point","coordinates":[121.442288,25.090055]}},{"type":"Feature","properties":{"name":"巡守隊","category":"bus"},"geometry":{"type":"Point","coordinates":[121.442398,25.090005]}},{"type":"Feature","properties":{"name":"御史路","category":"bus"},"geometry":{"type":"Point","coordinates":[121.440811,25.094408]}},{"type":"Feature","properties":{"name":"新加坡花園城堡","category":"bus"},"geometry":{"type":"Point","coordinates":[121.428224,25.070105]}},{"type":"Feature","properties":{"name":"新城","category":"bus"},"geometry":{"type":"Point","coordinates":[121.44643,25.090606]}},{"type":"Feature","properties":{"name":"賀聖宮","category":"bus"},"geometry":{"type":"Point","coordinates":[121.445198,25.089019]}},{"type":"Feature","properties":{"name":"新城","category":"bus"},"geometry":{"type":"Point","coordinates":[121.447252,25.091239]}}]}
