{"type":"FeatureCollection","features":[{"type":"Feature","properties":{"id":"74b5388c7c37dc4e4884a4a2","name":"臺北榮民總醫院地面停車場","category":"parking","facilityType":"offstreet-parking","sourceUpdatedAt":"2026-07-20T06:01:00.530Z","carCapacity":209},"geometry":{"type":"Point","coordinates":[121.5201656,25.12113]}},{"type":"Feature","properties":{"id":"d168768938df42d19db56185","name":"臺北榮民總醫院立體停車場","category":"parking","facilityType":"offstreet-parking","sourceUpdatedAt":"2026-07-20T06:01:00.530Z","carCapacity":812},"geometry":{"type":"Point","coordinates":[121.5214027,25.1196444]}},{"type":"Feature","properties":{"id":"59ff87aa56bd7eecb672a7d9","name":"中壽北投站停車場","category":"parking","facilityType":"offstreet-parking","sourceUpdatedAt":"2026-07-20T06:01:00.530Z","carCapacity":308},"geometry":{"type":"Point","coordinates":[121.4987911,25.1305004]}},{"type":"Feature","properties":{"id":"05811a654ec5740edefda6c3","name":"嘟嘟房捷運新北投站停車場","category":"parking","facilityType":"offstreet-parking","sourceUpdatedAt":"2026-07-20T06:01:00.530Z","carCapacity":24},"geometry":{"type":"Point","coordinates":[121.5014491,25.1368747]}},{"type":"Feature","properties":{"id":"2d625272da7f70d61f178ef0","name":"嘟嘟房捷運石牌站停車場","category":"parking","facilityType":"offstreet-parking","sourceUpdatedAt":"2026-07-20T06:01:00.530Z","carCapacity":64},"geometry":{"type":"Point","coordinates":[121.5145334,25.1160081]}},{"type":"Feature","properties":{"id":"93a4489d1e3c38323229a59a","name":"嘟嘟房捷運唭哩岸站停車場","category":"parking","facilityType":"offstreet-parking","sourceUpdatedAt":"2026-07-20T06:01:00.530Z","carCapacity":37},"geometry":{"type":"Point","coordinates":[121.5064405,25.1208293]}},{"type":"Feature","properties":{"id":"3ef5ac71cf6383a8cf269906","name":"嘟嘟房捷運忠義站停車場","category":"parking","facilityType":"offstreet-parking","sourceUpdatedAt":"2026-07-20T06:01:00.530Z","carCapacity":44},"geometry":{"type":"Point","coordinates":[121.4733742,25.1311024]}},{"type":"Feature","properties":{"id":"36a8a018c1b0fae3f8e8a1ca","name":"嘟嘟房捷運北投站停車場","category":"parking","facilityType":"offstreet-parking","sourceUpdatedAt":"2026-07-20T06:01:00.530Z","carCapacity":85},"geometry":{"type":"Point","coordinates":[121.4981472,25.1328349]}},{"type":"Feature","properties":{"id":"5f7a52681174acf2382ebda5","name":"歐特儀股份有限公司小油坑停車場","category":"parking","facilityType":"offstreet-parking","sourceUpdatedAt":"2026-07-20T06:01:00.530Z","carCapacity":60},"geometry":{"type":"Point","coordinates":[121.5471977,25.177044]}},{"type":"Feature","properties":{"id":"d303ac7769f066a9aa0477d3","name":"陽明山立體停車場","category":"parking","facilityType":"offstreet-parking","sourceUpdatedAt":"2026-07-20T06:01:00.530Z","carCapacity":209},"geometry":{"type":"Point","coordinates":[121.5389233,25.1551326]}},{"type":"Feature","properties":{"id":"b445faae3bc60c7733801b2e","name":"大豐公園地下停車場","category":"parking","facilityType":"offstreet-parking","sourceUpdatedAt":"2026-07-20T06:01:00.530Z","carCapacity":234},"geometry":{"type":"Point","coordinates":[121.5042091,25.1311343]}},{"type":"Feature","properties":{"id":"82b096e5af9631db69f5ff35","name":"行義路平面停車場","category":"parking","facilityType":"offstreet-parking","sourceUpdatedAt":"2026-07-20T06:01:00.530Z","carCapacity":18},"geometry":{"type":"Point","coordinates":[121.5261892,25.1239618]}},{"type":"Feature","properties":{"id":"baa5a8a69b143efde1442a3e","name":"臺北市立關渡醫院停車場","category":"parking","facilityType":"offstreet-parking","sourceUpdatedAt":"2026-07-20T06:01:00.530Z","carCapacity":51},"geometry":{"type":"Point","coordinates":[121.466403,25.1201791]}},{"type":"Feature","properties":{"id":"30f0fd090c48cf6106d25e79","name":"復興路平面停車場","category":"parking","facilityType":"offstreet-parking","sourceUpdatedAt":"2026-07-20T06:01:00.530Z","carCapacity":69},"geometry":{"type":"Point","coordinates":[121.5046346,25.1407556]}},{"type":"Feature","properties":{"id":"494a115607f8fd19a1c35884","name":"開勝平面停車場","category":"parking","facilityType":"offstreet-parking","sourceUpdatedAt":"2026-07-20T06:01:00.530Z","carCapacity":29},"geometry":{"type":"Point","coordinates":[121.5049806,25.1406482]}},{"type":"Feature","properties":{"id":"40a8a0720d768df96328e950","name":"關渡醫院旁平面停車場","category":"parking","facilityType":"offstreet-parking","sourceUpdatedAt":"2026-07-20T06:01:00.530Z","carCapacity":36},"geometry":{"type":"Point","coordinates":[121.4657166,25.1203322]}},{"type":"Feature","properties":{"id":"4fa2196fd2d1aecb810505ad","name":"東華停車場","category":"parking","facilityType":"offstreet-parking","sourceUpdatedAt":"2026-07-20T06:01:00.530Z","carCapacity":85},"geometry":{"type":"Point","coordinates":[121.5167781,25.1134537]}},{"type":"Feature","properties":{"id":"7689572aa62cca71777f5f59","name":"愛馬屋石牌場","category":"parking","facilityType":"offstreet-parking","sourceUpdatedAt":"2026-07-20T06:01:00.530Z","carCapacity":15},"geometry":{"type":"Point","coordinates":[121.5107442,25.11247]}},{"type":"Feature","properties":{"id":"a01d335ee98f2c3910350713","name":"陽明大學停車場","category":"parking","facilityType":"offstreet-parking","sourceUpdatedAt":"2026-07-20T06:01:00.530Z","carCapacity":15},"geometry":{"type":"Point","coordinates":[121.5134071,25.1196634]}},{"type":"Feature","properties":{"id":"e11bd1b01de4b3374db1073a","name":"陽明山花鐘停車場","category":"parking","facilityType":"offstreet-parking","sourceUpdatedAt":"2026-07-20T06:01:00.530Z","carCapacity":34},"geometry":{"type":"Point","coordinates":[121.5395656,25.1576361]}},{"type":"Feature","properties":{"id":"788456fa885c2a75f963e9b9","name":"陽明山第二停車場","category":"parking","facilityType":"offstreet-parking","sourceUpdatedAt":"2026-07-20T06:01:00.530Z","carCapacity":112},"geometry":{"type":"Point","coordinates":[121.5455437,25.1548699]}},{"type":"Feature","properties":{"id":"bf2385f6b17278ffbf60bedf","name":"關渡水岸自然公園平面停車場","category":"parking","facilityType":"offstreet-parking","sourceUpdatedAt":"2026-07-20T06:01:00.530Z","carCapacity":309},"geometry":{"type":"Point","coordinates":[121.4624503,25.118682]}},{"type":"Feature","properties":{"id":"ffee30c260d346c92d2b7448","name":"臺北榮民總醫院二號門地下停車場","category":"parking","facilityType":"offstreet-parking","sourceUpdatedAt":"2026-07-20T06:01:00.530Z","carCapacity":366},"geometry":{"type":"Point","coordinates":[121.5205235,25.1191331]}},{"type":"Feature","properties":{"id":"c5bf057f79195419b69755c9","name":"明德平面停車場","category":"parking","facilityType":"offstreet-parking","sourceUpdatedAt":"2026-07-20T06:01:00.530Z","carCapacity":30},"geometry":{"type":"Point","coordinates":[121.5206967,25.1155593]}},{"type":"Feature","properties":{"id":"ee52aa9975a57bc24d9e0cb2","name":"臺北藝術大學停車場","category":"parking","facilityType":"offstreet-parking","sourceUpdatedAt":"2026-07-20T06:01:00.530Z","carCapacity":47},"geometry":{"type":"Point","coordinates":[121.4662344,25.1307423]}},{"type":"Feature","properties":{"id":"e67f61124633e7c3fe1f533b","name":"洲美運動公園地下停車場","category":"parking","facilityType":"offstreet-parking","sourceUpdatedAt":"2026-07-20T06:01:00.530Z","carCapacity":88},"geometry":{"type":"Point","coordinates":[121.4993908,25.1097303]}},{"type":"Feature","properties":{"id":"3d42f423f67d894a97cb8c7f","name":"醫療財團法人辜公亮基金會和信治癌中心醫院-醫療大樓停車場","category":"parking","facilityType":"offstreet-parking","sourceUpdatedAt":"2026-07-20T06:01:00.530Z","carCapacity":95},"geometry":{"type":"Point","coordinates":[121.4720099,25.1283405]}},{"type":"Feature","properties":{"id":"6b9be4ff96c8e460044917ee","name":"石牌國小地下停車場","category":"parking","facilityType":"offstreet-parking","sourceUpdatedAt":"2026-07-20T06:01:00.530Z","carCapacity":461},"geometry":{"type":"Point","coordinates":[121.5131434,25.1145215]}},{"type":"Feature","properties":{"id":"d1754cb6330e27148317361c","name":"弘盛開發股份有限公司停車場","category":"parking","facilityType":"offstreet-parking","sourceUpdatedAt":"2026-07-20T06:01:00.530Z","carCapacity":43},"geometry":{"type":"Point","coordinates":[121.4680356,25.1282286]}},{"type":"Feature","properties":{"id":"b9a43bc9149de0e5989b393f","name":"振興醫療財團法人振興醫院附設停車場","category":"parking","facilityType":"offstreet-parking","sourceUpdatedAt":"2026-07-20T06:01:00.530Z","carCapacity":133},"geometry":{"type":"Point","coordinates":[121.5222487,25.1174444]}},{"type":"Feature","properties":{"id":"db49fda4b0b540bb1abda70f","name":"臺北市立中正高級中學停車場(停車場管理)","category":"parking","facilityType":"offstreet-parking","sourceUpdatedAt":"2026-07-20T06:01:00.530Z","carCapacity":64},"geometry":{"type":"Point","coordinates":[121.516608,25.1044123]}},{"type":"Feature","properties":{"id":"8c1c89e433d8df5a96c65bd3","name":"北投國中教職員工停車場","category":"parking","facilityType":"offstreet-parking","sourceUpdatedAt":"2026-07-20T06:01:00.530Z","carCapacity":36},"geometry":{"type":"Point","coordinates":[121.5036128,25.1349402]}},{"type":"Feature","properties":{"id":"74fa32c25dcf0a7e04ac145f","name":"臺北市立明德國民中學附設停車場","category":"parking","facilityType":"offstreet-parking","sourceUpdatedAt":"2026-07-20T06:01:00.530Z","carCapacity":20},"geometry":{"type":"Point","coordinates":[121.5183453,25.1076302]}},{"type":"Feature","properties":{"id":"7f2a2d5691b1a669b1cb5fc1","name":"中央北路四段平面停車場","category":"parking","facilityType":"offstreet-parking","sourceUpdatedAt":"2026-07-20T06:01:00.530Z","carCapacity":23},"geometry":{"type":"Point","coordinates":[121.4676695,25.128049]}},{"type":"Feature","properties":{"id":"ce7bbde24792ba5914a7a488","name":"巧愛公寓地下室停車場","category":"parking","facilityType":"offstreet-parking","sourceUpdatedAt":"2026-07-20T06:01:00.530Z","carCapacity":16},"geometry":{"type":"Point","coordinates":[121.5195356,25.1065193]}},{"type":"Feature","properties":{"id":"405a018cc9865c896ed8a0ac","name":"北台國際開發股份有限公司石牌停車場","category":"parking","facilityType":"offstreet-parking","sourceUpdatedAt":"2026-07-20T06:01:00.530Z","carCapacity":29},"geometry":{"type":"Point","coordinates":[121.5225878,25.113055]}},{"type":"Feature","properties":{"id":"3eb8bc052671dc6570bedb80","name":"洲美快速道路高架橋下平面停車場","category":"parking","facilityType":"offstreet-parking","sourceUpdatedAt":"2026-07-20T06:01:00.530Z","carCapacity":19},"geometry":{"type":"Point","coordinates":[121.4991652,25.1051546]}},{"type":"Feature","properties":{"id":"75bb91de562bc7ca6bcc0d25","name":"七星公園地下停車場","category":"parking","facilityType":"offstreet-parking","sourceUpdatedAt":"2026-07-20T06:01:00.530Z","carCapacity":328},"geometry":{"type":"Point","coordinates":[121.5021838,25.1365567]}},{"type":"Feature","properties":{"id":"fac60b453ca01d1ced13ecee","name":"立農公園地下停車場","category":"parking","facilityType":"offstreet-parking","sourceUpdatedAt":"2026-07-20T06:01:00.530Z","carCapacity":204},"geometry":{"type":"Point","coordinates":[121.5030816,25.1185542]}},{"type":"Feature","properties":{"id":"fd3defb62671077eddbe5bed","name":"嘟嘟房北投榮華站停車場","category":"parking","facilityType":"offstreet-parking","sourceUpdatedAt":"2026-07-20T06:01:00.530Z","carCapacity":45},"geometry":{"type":"Point","coordinates":[121.5236908,25.1135571]}},{"type":"Feature","properties":{"id":"35586f774d41474988d0d05c","name":"公舘路平面停車場","category":"parking","facilityType":"offstreet-parking","sourceUpdatedAt":"2026-07-20T06:01:00.530Z","carCapacity":132},"geometry":{"type":"Point","coordinates":[121.5028964,25.1212209]}},{"type":"Feature","properties":{"id":"6336d46e2bccccbec37d13a1","name":"關渡國小運動中心停車場","category":"parking","facilityType":"offstreet-parking","sourceUpdatedAt":"2026-07-20T06:01:00.530Z","carCapacity":16},"geometry":{"type":"Point","coordinates":[121.4667377,25.1260536]}},{"type":"Feature","properties":{"id":"19466b933c00ba9d666c8b2b","name":"嘟嘟房北投旅客服務中心停車場","category":"parking","facilityType":"offstreet-parking","sourceUpdatedAt":"2026-07-20T06:01:00.530Z","carCapacity":14},"geometry":{"type":"Point","coordinates":[121.4815208,25.1365053]}},{"type":"Feature","properties":{"id":"38c374d11b7980940609aa30","name":"台北國際醫旅停車場","category":"parking","facilityType":"offstreet-parking","sourceUpdatedAt":"2026-07-20T06:01:00.530Z","carCapacity":34},"geometry":{"type":"Point","coordinates":[121.5037222,25.1374142]}},{"type":"Feature","properties":{"id":"891ed952d93b46df4b6a10e3","name":"博客停車場北投新興場","category":"parking","facilityType":"offstreet-parking","sourceUpdatedAt":"2026-07-20T06:01:00.530Z","carCapacity":28},"geometry":{"type":"Point","coordinates":[121.4873901,25.1404336]}},{"type":"Feature","properties":{"id":"08ebd69a30e8e1ce136653f9","name":"城市車旅國泰石牌停車場","category":"parking","facilityType":"offstreet-parking","sourceUpdatedAt":"2026-07-20T06:01:00.530Z","carCapacity":60},"geometry":{"type":"Point","coordinates":[121.5147917,25.1148613]}},{"type":"Feature","properties":{"id":"f729f194a02afcaab124a600","name":"大業路280巷臨時平面停車場","category":"parking","facilityType":"offstreet-parking","sourceUpdatedAt":"2026-07-20T06:01:00.530Z","carCapacity":40},"geometry":{"type":"Point","coordinates":[121.500081,25.1279418]}},{"type":"Feature","properties":{"id":"5bcc11b268cf90873b7faf83","name":"大業立體停車場","category":"parking","facilityType":"offstreet-parking","sourceUpdatedAt":"2026-07-20T06:01:00.530Z","carCapacity":122},"geometry":{"type":"Point","coordinates":[121.5028162,25.1377454]}},{"type":"Feature","properties":{"id":"a7abeea443b0bf44fc1d899d","name":"驛馬站北投一收費停車場","category":"parking","facilityType":"offstreet-parking","sourceUpdatedAt":"2026-07-20T06:01:00.530Z","carCapacity":42},"geometry":{"type":"Point","coordinates":[121.5056838,25.1353142]}},{"type":"Feature","properties":{"id":"f358ef4a202578550c968109","name":"好市多北投分公司","category":"parking","facilityType":"offstreet-parking","sourceUpdatedAt":"2026-07-20T06:01:00.530Z","carCapacity":690},"geometry":{"type":"Point","coordinates":[121.4701167,25.127582]}},{"type":"Feature","properties":{"id":"9859226572ab6d3ea16fabc8","name":"三軍總醫院北投分院停車場","category":"parking","facilityType":"offstreet-parking","sourceUpdatedAt":"2026-07-20T06:01:00.530Z","carCapacity":99},"geometry":{"type":"Point","coordinates":[121.509611,25.1399779]}},{"type":"Feature","properties":{"id":"16a12c1943b7e6a59f45823b","name":"振興公園地下停車場","category":"parking","facilityType":"offstreet-parking","sourceUpdatedAt":"2026-07-20T06:01:00.530Z","carCapacity":210},"geometry":{"type":"Point","coordinates":[121.5232363,25.1187721]}},{"type":"Feature","properties":{"id":"d0a18314d9962650094b021c","name":"北台國際開發股份有限公司大業停車場","category":"parking","facilityType":"offstreet-parking","sourceUpdatedAt":"2026-07-20T06:01:00.530Z","carCapacity":13},"geometry":{"type":"Point","coordinates":[121.4989237,25.1372239]}},{"type":"Feature","properties":{"id":"9909ea96b9de58ae2841543c","name":"北投雅樂軒停車場","category":"parking","facilityType":"offstreet-parking","sourceUpdatedAt":"2026-07-20T06:01:00.530Z","carCapacity":189},"geometry":{"type":"Point","coordinates":[121.498291,25.128263]}},{"type":"Feature","properties":{"id":"ebc4c73a4003eee2d0314633","name":"歐特儀股份有限公司夢幻湖停車場","category":"parking","facilityType":"offstreet-parking","sourceUpdatedAt":"2026-07-20T06:01:00.530Z","carCapacity":66},"geometry":{"type":"Point","coordinates":[121.5619743,25.1687875]}},{"type":"Feature","properties":{"id":"6a712708bd65dc85fdbec318","name":"歐特儀股份有限公司小油坑橋停車場","category":"parking","facilityType":"offstreet-parking","sourceUpdatedAt":"2026-07-20T06:01:00.530Z","carCapacity":40},"geometry":{"type":"Point","coordinates":[121.5446375,25.1793186]}},{"type":"Feature","properties":{"id":"225ef0e4886251b6607723e1","name":"歐特儀股份有限公司小觀音停車場","category":"parking","facilityType":"offstreet-parking","sourceUpdatedAt":"2026-07-20T06:01:00.530Z","carCapacity":16},"geometry":{"type":"Point","coordinates":[121.5462645,25.1797994]}},{"type":"Feature","properties":{"id":"79981d44ceaddacd784f7338","name":"嘟嘟房捷運北投機廠站停車場","category":"parking","facilityType":"offstreet-parking","sourceUpdatedAt":"2026-07-20T06:01:00.530Z","carCapacity":72},"geometry":{"type":"Point","coordinates":[121.4836871,25.1346895]}},{"type":"Feature","properties":{"id":"f677da796633ae89ca9d66af","name":"多多站收費停車場(北二場)","category":"parking","facilityType":"offstreet-parking","sourceUpdatedAt":"2026-07-20T06:01:00.530Z","carCapacity":49},"geometry":{"type":"Point","coordinates":[121.5016617,25.1388898]}},{"type":"Feature","properties":{"id":"66f9b031aab68d5fbb964717","name":"臺北榮民總醫院神經再生中心停車場","category":"parking","facilityType":"offstreet-parking","sourceUpdatedAt":"2026-07-20T06:01:00.530Z","carCapacity":14},"geometry":{"type":"Point","coordinates":[121.5230675,25.1206081]}},{"type":"Feature","properties":{"id":"74ac4b34c865c47573a03c39","name":"嘟嘟房關渡宮站停車場","category":"parking","facilityType":"offstreet-parking","sourceUpdatedAt":"2026-07-20T06:01:00.530Z","carCapacity":39},"geometry":{"type":"Point","coordinates":[121.4657775,25.1189914]}},{"type":"Feature","properties":{"id":"f892499d533012640898edd1","name":"嘟嘟房捷運關渡站停車場","category":"parking","facilityType":"offstreet-parking","sourceUpdatedAt":"2026-07-20T06:01:00.530Z","carCapacity":53},"geometry":{"type":"Point","coordinates":[121.4673581,25.1253163]}},{"type":"Feature","properties":{"id":"f8dc46497f84f75226778322","name":"臺北榮民總醫院第三門診地下停車場","category":"parking","facilityType":"offstreet-parking","sourceUpdatedAt":"2026-07-20T06:01:00.530Z","carCapacity":120},"geometry":{"type":"Point","coordinates":[121.519424,25.1196196]}},{"type":"Feature","properties":{"id":"38a49b57fcae2f6bf28342db","name":"大業平面停車場","category":"parking","facilityType":"offstreet-parking","sourceUpdatedAt":"2026-07-20T06:01:00.530Z","carCapacity":117},"geometry":{"type":"Point","coordinates":[121.4978201,25.1295153]}},{"type":"Feature","properties":{"id":"c312cc474f0fa22bc74c2ef4","name":"Times北投三合街一段","category":"parking","facilityType":"offstreet-parking","sourceUpdatedAt":"2026-07-20T06:01:00.530Z","carCapacity":95},"geometry":{"type":"Point","coordinates":[121.5052513,25.1271469]}},{"type":"Feature","properties":{"id":"2e3361ef3fc03552aabcb71a","name":"沃瑪停車場一德站","category":"parking","facilityType":"offstreet-parking","sourceUpdatedAt":"2026-07-20T06:01:00.530Z","carCapacity":49},"geometry":{"type":"Point","coordinates":[121.4710584,25.1254358]}},{"type":"Feature","properties":{"id":"faf3f3cf671f96f997b59667","name":"公舘路228巷平面停車場","category":"parking","facilityType":"offstreet-parking","sourceUpdatedAt":"2026-07-20T06:01:00.530Z","carCapacity":68},"geometry":{"type":"Point","coordinates":[121.5050379,25.1250266]}},{"type":"Feature","properties":{"id":"ed9aa11d7b6783c595374802","name":"國立臺北護理健康大學校本部停車場","category":"parking","facilityType":"offstreet-parking","sourceUpdatedAt":"2026-07-20T06:01:00.530Z","carCapacity":20},"geometry":{"type":"Point","coordinates":[121.521507,25.1182242]}},{"type":"Feature","properties":{"id":"d09f9bf48aa66459364b014b","name":"秀山國小臨時平面停車場","category":"parking","facilityType":"offstreet-parking","sourceUpdatedAt":"2026-07-20T06:01:00.530Z","carCapacity":19},"geometry":{"type":"Point","coordinates":[121.4986297,25.146114]}},{"type":"Feature","properties":{"id":"97fcd081353214299535f138","name":"沃瑪停車場立德站","category":"parking","facilityType":"offstreet-parking","sourceUpdatedAt":"2026-07-20T06:01:00.530Z","carCapacity":49},"geometry":{"type":"Point","coordinates":[121.4727513,25.1256323]}},{"type":"Feature","properties":{"id":"3e2b5bd064d806ab3ac6fed8","name":"金龍停車場","category":"parking","facilityType":"offstreet-parking","sourceUpdatedAt":"2026-07-20T06:01:00.530Z","carCapacity":20},"geometry":{"type":"Point","coordinates":[121.5077467,25.1163825]}},{"type":"Feature","properties":{"id":"297e6f999da420545b484c41","name":"北投三合地下停車場","category":"parking","facilityType":"offstreet-parking","sourceUpdatedAt":"2026-07-20T06:01:00.530Z","carCapacity":46},"geometry":{"type":"Point","coordinates":[121.5053088,25.1279479]}},{"type":"Feature","properties":{"id":"fde8075f93875752835d287a","name":"臺北榮民總醫院三號門地下停車場","category":"parking","facilityType":"offstreet-parking","sourceUpdatedAt":"2026-07-20T06:01:00.530Z","carCapacity":162},"geometry":{"type":"Point","coordinates":[121.5208272,25.1190366]}},{"type":"Feature","properties":{"id":"06dbc3bca3283fb51c8d89a9","name":"城市車旅北投三合停車場","category":"parking","facilityType":"offstreet-parking","sourceUpdatedAt":"2026-07-20T06:01:00.530Z","carCapacity":48},"geometry":{"type":"Point","coordinates":[121.5051572,25.127852]}},{"type":"Feature","properties":{"id":"08d3e811b88991eba0b02c21","name":"懷德街55巷平面停車場","category":"parking","facilityType":"offstreet-parking","sourceUpdatedAt":"2026-07-20T06:01:00.530Z","carCapacity":132},"geometry":{"type":"Point","coordinates":[121.5192039,25.1131218]}},{"type":"Feature","properties":{"id":"d1b767421de3a030401bfce5","name":"立功停車場","category":"parking","facilityType":"offstreet-parking","sourceUpdatedAt":"2026-07-20T06:01:00.530Z","carCapacity":135},"geometry":{"type":"Point","coordinates":[121.4688706,25.1249681]}},{"type":"Feature","properties":{"id":"5ff1bc1ef6ac393d9b1a5aeb","name":"新奇岩社會住宅地下停車場","category":"parking","facilityType":"offstreet-parking","sourceUpdatedAt":"2026-07-20T06:01:00.530Z","carCapacity":170},"geometry":{"type":"Point","coordinates":[121.5033452,25.1232636]}},{"type":"Feature","properties":{"id":"7a1909fa400a52d6740dd663","name":"Times北護大學思樓停車場","category":"parking","facilityType":"offstreet-parking","sourceUpdatedAt":"2026-07-20T06:01:00.530Z","carCapacity":91},"geometry":{"type":"Point","coordinates":[121.52009,25.118273]}},{"type":"Feature","properties":{"id":"1609111429a8ce14680f3615","name":"Times北護大爾雅樓停車場","category":"parking","facilityType":"offstreet-parking","sourceUpdatedAt":"2026-07-20T06:01:00.530Z","carCapacity":33},"geometry":{"type":"Point","coordinates":[121.5181121,25.118174]}},{"type":"Feature","properties":{"id":"f7255b767e4bba8c258e4007","name":"禮頓企業有限公司永興停車場","category":"parking","facilityType":"offstreet-parking","sourceUpdatedAt":"2026-07-20T06:01:00.530Z","carCapacity":9},"geometry":{"type":"Point","coordinates":[121.4987549,25.1376778]}},{"type":"Feature","properties":{"id":"eae5fcd967ee8e83e044b161","name":"禾聯立農段停車場","category":"parking","facilityType":"offstreet-parking","sourceUpdatedAt":"2026-07-20T06:01:00.530Z","carCapacity":23},"geometry":{"type":"Point","coordinates":[121.5077838,25.1196084]}},{"type":"Feature","properties":{"id":"a9b46afc289821a9885c2504","name":"豐年運動公園平面停車場","category":"parking","facilityType":"offstreet-parking","sourceUpdatedAt":"2026-07-20T06:01:00.530Z","carCapacity":63},"geometry":{"type":"Point","coordinates":[121.4950645,25.1352808]}},{"type":"Feature","properties":{"id":"5419eaf95234a38fd5dcc0ae","name":"豐年運動公園(一)平面停車場","category":"parking","facilityType":"offstreet-parking","sourceUpdatedAt":"2026-07-20T06:01:00.530Z","carCapacity":18},"geometry":{"type":"Point","coordinates":[121.4956056,25.134868]}},{"type":"Feature","properties":{"id":"1701cfa85f9b00c05bbc061e","name":"華南巷停車場","category":"parking","facilityType":"offstreet-parking","sourceUpdatedAt":"2026-07-20T06:01:00.530Z","carCapacity":32},"geometry":{"type":"Point","coordinates":[121.5065561,25.1406704]}},{"type":"Feature","properties":{"id":"7c122a4edc288ffd91ff2dd4","name":"長揚停車場懷德站","category":"parking","facilityType":"offstreet-parking","sourceUpdatedAt":"2026-07-20T06:01:00.530Z","carCapacity":3},"geometry":{"type":"Point","coordinates":[121.5203252,25.1147074]}},{"type":"Feature","properties":{"id":"63ca8756a78fdc375881642b","name":"光明路停車場","category":"parking","facilityType":"offstreet-parking","sourceUpdatedAt":"2026-07-20T06:01:00.530Z","carCapacity":44},"geometry":{"type":"Point","coordinates":[121.5018552,25.1343682]}},{"type":"Feature","properties":{"id":"33e41d1a22e1ee0166291b0c","name":"三合街1段82巷平面停車場","category":"parking","facilityType":"offstreet-parking","sourceUpdatedAt":"2026-07-20T06:01:00.530Z","carCapacity":8},"geometry":{"type":"Point","coordinates":[121.50425,25.128917]}},{"type":"Feature","properties":{"id":"a93222f4c7db32f8f136a650","name":"臺北榮民總醫院長青樓地下停車場","category":"parking","facilityType":"offstreet-parking","sourceUpdatedAt":"2026-07-20T06:01:00.530Z","carCapacity":160},"geometry":{"type":"Point","coordinates":[121.5188815,25.1193492]}},{"type":"Feature","properties":{"id":"ff425d9eaa3a9f4f13934079","name":"忠義站平面停車場","category":"parking","facilityType":"offstreet-parking","sourceUpdatedAt":"2026-07-20T06:01:00.530Z","carCapacity":26},"geometry":{"type":"Point","coordinates":[121.4743962,25.1315853]}},{"type":"Feature","properties":{"id":"326f78985de74dca713aefac","name":"北投承德大樓地下停車場","category":"parking","facilityType":"offstreet-parking","sourceUpdatedAt":"2026-07-20T06:01:00.530Z","carCapacity":45},"geometry":{"type":"Point","coordinates":[121.5013277,25.1202059]}},{"type":"Feature","properties":{"id":"464b335382627f923bc69201","name":"詮營北投溫泉停車場","category":"parking","facilityType":"offstreet-parking","sourceUpdatedAt":"2026-07-20T06:01:00.530Z","carCapacity":26},"geometry":{"type":"Point","coordinates":[121.50631,25.134537]}},{"type":"Feature","properties":{"id":"35d58786f7ba8be5eeb817bb","name":"百洲停車場","category":"parking","facilityType":"offstreet-parking","sourceUpdatedAt":"2026-07-20T06:01:00.530Z","carCapacity":20},"geometry":{"type":"Point","coordinates":[121.5002748,25.1275606]}},{"type":"Feature","properties":{"id":"4edc34c29cd13b1cce16e141","name":"臺北市立中正高級中學停車場","category":"parking","facilityType":"offstreet-parking","sourceUpdatedAt":"2026-07-20T06:01:00.530Z","carCapacity":65},"geometry":{"type":"Point","coordinates":[121.5156538,25.1025952]}},{"type":"Feature","properties":{"id":"dc730e82c0901fdea503c358","name":"Times 文林北路","category":"parking","facilityType":"offstreet-parking","sourceUpdatedAt":"2026-07-20T06:01:00.530Z","carCapacity":49},"geometry":{"type":"Point","coordinates":[121.5138785,25.107517]}},{"type":"Feature","properties":{"id":"2a82e0d649766017c532ac04","name":"北投稻香地下停車場","category":"parking","facilityType":"offstreet-parking","sourceUpdatedAt":"2026-07-20T06:01:00.530Z","carCapacity":91},"geometry":{"type":"Point","coordinates":[121.4893646,25.1409466]}},{"type":"Feature","properties":{"id":"f4ea769592f0f2d8bb761838","name":"Times文林北路第2停車場","category":"parking","facilityType":"offstreet-parking","sourceUpdatedAt":"2026-07-20T06:01:00.530Z","carCapacity":35},"geometry":{"type":"Point","coordinates":[121.5147101,25.1070224]}},{"type":"Feature","properties":{"id":"be8f1bc6e13a9a9609902b96","name":"博客停車場-家福公館場","category":"parking","facilityType":"offstreet-parking","sourceUpdatedAt":"2026-07-20T06:01:00.530Z","carCapacity":61},"geometry":{"type":"Point","coordinates":[121.5072572,25.1277275]}},{"type":"Feature","properties":{"id":"4a965ed2ef49f3e39c4fcb0d","name":"北投翔帆停車場","category":"parking","facilityType":"offstreet-parking","sourceUpdatedAt":"2026-07-20T06:01:00.530Z","carCapacity":6},"geometry":{"type":"Point","coordinates":[121.506056,25.143633]}},{"type":"Feature","properties":{"id":"85d901cb4d749fc0aaed64df","name":"宏達經營管理顧問有限公司大愛二停車場","category":"parking","facilityType":"offstreet-parking","sourceUpdatedAt":"2026-07-20T06:01:00.530Z","carCapacity":67},"geometry":{"type":"Point","coordinates":[121.4720492,25.1242114]}},{"type":"Feature","properties":{"id":"486f45973c94ca58e46a687c","name":"北投洲美臨時平面停車場","category":"parking","facilityType":"offstreet-parking","sourceUpdatedAt":"2026-07-20T06:01:00.530Z","carCapacity":102},"geometry":{"type":"Point","coordinates":[121.5085624,25.0999998]}},{"type":"Feature","properties":{"id":"c1a0d8fb2882e91340eb5d5f","name":"Times行天宮北投分宮","category":"parking","facilityType":"offstreet-parking","sourceUpdatedAt":"2026-07-20T06:01:00.530Z","carCapacity":64},"geometry":{"type":"Point","coordinates":[121.4779516,25.1360397]}},{"type":"Feature","properties":{"id":"32c8683b7bcdf3080be63c66","name":"USPACE石牌路二段357巷停車場","category":"parking","facilityType":"offstreet-parking","sourceUpdatedAt":"2026-07-20T06:01:00.530Z","carCapacity":1},"geometry":{"type":"Point","coordinates":[121.5254303,25.1240839]}},{"type":"Feature","properties":{"id":"4111a1cb9c867c51cb392764","name":"福國路(洲美段一)橋下平面停車場","category":"parking","facilityType":"offstreet-parking","sourceUpdatedAt":"2026-07-20T06:01:00.530Z","carCapacity":12},"geometry":{"type":"Point","coordinates":[121.50337,25.100781]}},{"type":"Feature","properties":{"id":"04d09146454e2d2d1661bf8a","name":"明明德停車場","category":"parking","facilityType":"offstreet-parking","sourceUpdatedAt":"2026-07-20T06:01:00.530Z","carCapacity":30},"geometry":{"type":"Point","coordinates":[121.518592,25.1069892]}},{"type":"Feature","properties":{"id":"fc8c940c7eefd4c605f1c485","name":"宏達經營管理顧問有限公司大愛一停車場","category":"parking","facilityType":"offstreet-parking","sourceUpdatedAt":"2026-07-20T06:01:00.530Z","carCapacity":173},"geometry":{"type":"Point","coordinates":[121.4716306,25.1234451]}},{"type":"Feature","properties":{"id":"c3ce103d0c9af8bf654f9d0f","name":"微笑安心停","category":"parking","facilityType":"offstreet-parking","sourceUpdatedAt":"2026-07-20T06:01:00.530Z","carCapacity":22},"geometry":{"type":"Point","coordinates":[121.5057171,25.1318281]}},{"type":"Feature","properties":{"id":"ba3c5d4d0d60ff34f4d7a65a","name":"北投運動中心停車場","category":"parking","facilityType":"offstreet-parking","sourceUpdatedAt":"2026-07-20T06:01:00.530Z","carCapacity":95},"geometry":{"type":"Point","coordinates":[121.5097962,25.1161156]}},{"type":"Feature","properties":{"id":"f85a2d9e2cf3e5df6464994d","name":"醫療財團法人辜公亮基金會和信治癌中心醫院停車場","category":"parking","facilityType":"offstreet-parking","sourceUpdatedAt":"2026-07-20T06:01:00.530Z","carCapacity":84},"geometry":{"type":"Point","coordinates":[121.4724965,25.1283534]}},{"type":"Feature","properties":{"id":"4b9191856b4fcc8b7035cbe1","name":"宏達經營管理顧問有限公司吉利停車場","category":"parking","facilityType":"offstreet-parking","sourceUpdatedAt":"2026-07-20T06:01:00.530Z","carCapacity":6},"geometry":{"type":"Point","coordinates":[121.5042717,25.1181019]}},{"type":"Feature","properties":{"id":"bb074f16d1b97dd6d78ebd7c","name":"福國路(洲美段二)橋下平面停車場","category":"parking","facilityType":"offstreet-parking","sourceUpdatedAt":"2026-07-20T06:01:00.530Z","carCapacity":43},"geometry":{"type":"Point","coordinates":[121.4996626,25.1015087]}},{"type":"Feature","properties":{"id":"77835b7750466b450dd08dc3","name":"USPACE北投晶泉丰旅停車場","category":"parking","facilityType":"offstreet-parking","sourceUpdatedAt":"2026-07-20T06:01:00.530Z","carCapacity":107},"geometry":{"type":"Point","coordinates":[121.50444,25.138049]}},{"type":"Feature","properties":{"id":"71427019ed1ce31238191605","name":"三合街1段82巷62弄平面停車場","category":"parking","facilityType":"offstreet-parking","sourceUpdatedAt":"2026-07-20T06:01:00.530Z","carCapacity":48},"geometry":{"type":"Point","coordinates":[121.50542,25.128929]}},{"type":"Feature","properties":{"id":"ef4ec2ae1bfdd3f1d4b09d38","name":"三合街1段82巷86弄平面停車場","category":"parking","facilityType":"offstreet-parking","sourceUpdatedAt":"2026-07-20T06:01:00.530Z","carCapacity":28},"geometry":{"type":"Point","coordinates":[121.5045,25.129036]}},{"type":"Feature","properties":{"id":"90a43800927b6959e415a066","name":"文林橋下平面停車場","category":"parking","facilityType":"offstreet-parking","sourceUpdatedAt":"2026-07-20T06:01:00.530Z","carCapacity":20},"geometry":{"type":"Point","coordinates":[121.51692,25.101851]}},{"type":"Feature","properties":{"id":"8bfe107b26c5d42a1fd3f3bd","name":"USPACE 正大樂富停車場","category":"parking","facilityType":"offstreet-parking","sourceUpdatedAt":"2026-07-20T06:01:00.530Z","carCapacity":45},"geometry":{"type":"Point","coordinates":[121.5139959,25.1047722]}},{"type":"Feature","properties":{"id":"3cd1c50c5fe90af2c3bab485","name":"北投製片廠平面停車場","category":"parking","facilityType":"offstreet-parking","sourceUpdatedAt":"2026-07-20T06:01:00.530Z","carCapacity":80},"geometry":{"type":"Point","coordinates":[121.48771,25.139185]}},{"type":"Feature","properties":{"id":"bcd2a85480e2677d8ae4eee9","name":"嘟嘟房北投文林站停車場","category":"parking","facilityType":"offstreet-parking","sourceUpdatedAt":"2026-07-20T06:01:00.530Z","carCapacity":50},"geometry":{"type":"Point","coordinates":[121.51881,25.106578]}},{"type":"Feature","properties":{"id":"e5a2613cf9e04e11c2cfe313","name":"北投央北站停車場","category":"parking","facilityType":"offstreet-parking","sourceUpdatedAt":"2026-07-20T06:01:00.530Z","carCapacity":62},"geometry":{"type":"Point","coordinates":[121.46863,25.128563]}},{"type":"Feature","properties":{"id":"6b47c7d38f3350661bcfbec7","name":"168停車聯盟-石牌二場","category":"parking","facilityType":"offstreet-parking","sourceUpdatedAt":"2026-07-20T06:01:00.530Z","carCapacity":148},"geometry":{"type":"Point","coordinates":[121.5167,25.115707]}},{"type":"Feature","properties":{"id":"93b4f6db4452004cd0cd8eb8","name":"唭哩岸停車場","category":"parking","facilityType":"offstreet-parking","sourceUpdatedAt":"2026-07-20T06:01:00.530Z","carCapacity":6},"geometry":{"type":"Point","coordinates":[121.50658,25.121094]}},{"type":"Feature","properties":{"id":"d483a225ccbfaa1a55408dae","name":"洲美公園臨時平面停車場","category":"parking","facilityType":"offstreet-parking","sourceUpdatedAt":"2026-07-20T06:01:00.530Z","carCapacity":6},"geometry":{"type":"Point","coordinates":[121.50577,25.100255]}},{"type":"Feature","properties":{"id":"c2f1956c8a1bc43b29367463","name":"石牌陽信大樓停車場","category":"parking","facilityType":"offstreet-parking","sourceUpdatedAt":"2026-07-20T06:01:00.530Z","carCapacity":59},"geometry":{"type":"Point","coordinates":[121.51189,25.113759]}},{"type":"Feature","properties":{"id":"a444cfb9d56074475de924e0","name":"萊客有限公司文林北停車場","category":"parking","facilityType":"offstreet-parking","sourceUpdatedAt":"2026-07-20T06:01:00.530Z","carCapacity":4},"geometry":{"type":"Point","coordinates":[121.51909,25.104521]}},{"type":"Feature","properties":{"id":"4bdeebe86c5fdf7a23545991","name":"承德七停車場","category":"parking","facilityType":"offstreet-parking","sourceUpdatedAt":"2026-07-20T06:01:00.530Z","carCapacity":6},"geometry":{"type":"Point","coordinates":[121.5063,25.115855]}},{"type":"Feature","properties":{"id":"b349d1285112d7ec7d80a4fc","name":"大業路527巷平面停車場","category":"parking","facilityType":"offstreet-parking","sourceUpdatedAt":"2026-07-20T06:01:00.530Z","carCapacity":14},"geometry":{"type":"Point","coordinates":[121.48792,25.13664]}},{"type":"Feature","properties":{"id":"22e463229053f98c123adbd2","name":"振華公園地下停車場","category":"parking","facilityType":"offstreet-parking","sourceUpdatedAt":"2026-07-20T06:01:00.530Z","carCapacity":405},"geometry":{"type":"Point","coordinates":[121.51822,25.115763]}},{"type":"Feature","properties":{"id":"a6b363d4311080048910749c","name":"Times立德路","category":"parking","facilityType":"offstreet-parking","sourceUpdatedAt":"2026-07-20T06:01:00.530Z","carCapacity":29},"geometry":{"type":"Point","coordinates":[121.47194,25.126497]}},{"type":"Feature","properties":{"id":"0e323fc53230eb8e8672076a","name":"北投新民停車場","category":"parking","facilityType":"offstreet-parking","sourceUpdatedAt":"2026-07-20T06:01:00.530Z","carCapacity":45},"geometry":{"type":"Point","coordinates":[121.50733,25.139486]}},{"type":"Feature","properties":{"id":"9f0574470b0a98d385604764","name":"福星公園地下停車場","category":"parking","facilityType":"offstreet-parking","sourceUpdatedAt":"2026-07-20T06:01:00.530Z","carCapacity":425},"geometry":{"type":"Point","coordinates":[121.51258,25.107532]}},{"type":"Feature","properties":{"id":"a8f2482f8c74b3800217a38f","name":"及泰-福善二場","category":"parking","facilityType":"offstreet-parking","sourceUpdatedAt":"2026-07-20T06:01:00.530Z","carCapacity":32},"geometry":{"type":"Point","coordinates":[121.50612,25.098769]}},{"type":"Feature","properties":{"id":"965a959ced26a94f014d1bd4","name":"吉美天悅收費停車場","category":"parking","facilityType":"offstreet-parking","sourceUpdatedAt":"2026-07-20T06:01:00.530Z","carCapacity":31},"geometry":{"type":"Point","coordinates":[121.514,25.113887]}},{"type":"Feature","properties":{"id":"d9b3fc10e34d5cfcc3aa83b9","name":"168停車聯盟-中央北場","category":"parking","facilityType":"offstreet-parking","sourceUpdatedAt":"2026-07-20T06:01:00.530Z","carCapacity":20},"geometry":{"type":"Point","coordinates":[121.48553,25.138869]}},{"type":"Feature","properties":{"id":"9ceb4b03a258d41efd9eddce","name":"Times奇岩捷運站","category":"parking","facilityType":"offstreet-parking","sourceUpdatedAt":"2026-07-20T06:01:00.530Z","carCapacity":3},"geometry":{"type":"Point","coordinates":[121.50159,25.126473]}},{"type":"Feature","properties":{"id":"0b7d5ba0f6014791b9abc09c","name":"Times奇岩捷運站第2","category":"parking","facilityType":"offstreet-parking","sourceUpdatedAt":"2026-07-20T06:01:00.530Z","carCapacity":5},"geometry":{"type":"Point","coordinates":[121.50198,25.126567]}}]}
