{"type":"FeatureCollection","features":[{"type":"Feature","properties":{"id":"b16e850aeca14009db4cb757","name":"啟源停車場","category":"parking","facilityType":"offstreet-parking","sourceUpdatedAt":"2026-07-21T02:58:29.534Z","carCapacity":1},"geometry":{"type":"Point","coordinates":[121.526762,25.003401]}},{"type":"Feature","properties":{"id":"a0bddd7562d8311808030c06","name":"宏達經營管理顧問有限公司永利停車場","category":"parking","facilityType":"offstreet-parking","sourceUpdatedAt":"2026-07-21T02:58:29.534Z","carCapacity":126},"geometry":{"type":"Point","coordinates":[121.5196887,25.0055152]}},{"type":"Feature","properties":{"id":"b7a229f729b58a937aaafcf8","name":"香檳停車場","category":"parking","facilityType":"offstreet-parking","sourceUpdatedAt":"2026-07-21T02:58:29.534Z","carCapacity":19},"geometry":{"type":"Point","coordinates":[121.5213733,24.9980882]}},{"type":"Feature","properties":{"id":"3c004f303c66fb330f5273bf","name":"帥帥停車場","category":"parking","facilityType":"offstreet-parking","sourceUpdatedAt":"2026-07-21T02:58:29.534Z","carCapacity":70},"geometry":{"type":"Point","coordinates":[121.5244185,25.0104641]}},{"type":"Feature","properties":{"id":"f77ccda2b56ea3868534a092","name":"Times永和大新街停車場","category":"parking","facilityType":"offstreet-parking","sourceUpdatedAt":"2026-07-21T02:58:29.534Z","carCapacity":4},"geometry":{"type":"Point","coordinates":[121.5159802,25.0082998]}},{"type":"Feature","properties":{"id":"25a0d46445b56c26b5f8ce61","name":"致和停車場","category":"parking","facilityType":"offstreet-parking","sourceUpdatedAt":"2026-07-21T02:58:29.534Z","carCapacity":321},"geometry":{"type":"Point","coordinates":[121.5292179,24.9996314]}},{"type":"Feature","properties":{"id":"5e492e693d320a4c6aa4d9e4","name":"双和停車場","category":"parking","facilityType":"offstreet-parking","sourceUpdatedAt":"2026-07-21T02:58:29.534Z","carCapacity":69},"geometry":{"type":"Point","coordinates":[121.5066485,25.0000666]}},{"type":"Feature","properties":{"id":"708e501242ce25d30d9c81d1","name":"欣欣停車場","category":"parking","facilityType":"offstreet-parking","sourceUpdatedAt":"2026-07-21T02:58:29.534Z","carCapacity":152},"geometry":{"type":"Point","coordinates":[121.529209,24.9987196]}},{"type":"Feature","properties":{"id":"1d9073caccd3397f0d66fc12","name":"玉清宮停車場","category":"parking","facilityType":"offstreet-parking","sourceUpdatedAt":"2026-07-21T02:58:29.534Z","carCapacity":77},"geometry":{"type":"Point","coordinates":[121.530169,25.002017]}},{"type":"Feature","properties":{"id":"1becd0efd737641da3f0cc4b","name":"Times 永和仁愛路停車場","category":"parking","facilityType":"offstreet-parking","sourceUpdatedAt":"2026-07-21T02:58:29.534Z","carCapacity":23},"geometry":{"type":"Point","coordinates":[121.5025836,25.0073164]}},{"type":"Feature","properties":{"id":"f562c227577c69ebcbb400f6","name":"天琴停車場","category":"parking","facilityType":"offstreet-parking","sourceUpdatedAt":"2026-07-21T02:58:29.534Z","carCapacity":192},"geometry":{"type":"Point","coordinates":[121.5291927,24.998846]}},{"type":"Feature","properties":{"id":"bdb26951acd7a4aa187d9de4","name":"網溪國小地下停車場","category":"parking","facilityType":"offstreet-parking","sourceUpdatedAt":"2026-07-21T02:58:29.534Z","carCapacity":652},"geometry":{"type":"Point","coordinates":[121.5200979,25.0139912]}},{"type":"Feature","properties":{"id":"a716959b07c66d0654ce03ad","name":"永和保平停車場","category":"parking","facilityType":"offstreet-parking","sourceUpdatedAt":"2026-07-21T02:58:29.534Z","carCapacity":12},"geometry":{"type":"Point","coordinates":[121.5094714,25.0074013]}},{"type":"Feature","properties":{"id":"bb0e96db8fb130ce52403137","name":"吉美一品收費停車場","category":"parking","facilityType":"offstreet-parking","sourceUpdatedAt":"2026-07-21T02:58:29.534Z","carCapacity":19},"geometry":{"type":"Point","coordinates":[121.5184523,25.0135248]}},{"type":"Feature","properties":{"id":"bce7edef4005d6c7a731b58a","name":"永和仁愛公園地下停車場","category":"parking","facilityType":"offstreet-parking","sourceUpdatedAt":"2026-07-21T02:58:29.534Z","carCapacity":645},"geometry":{"type":"Point","coordinates":[121.5065349,25.0110271]}},{"type":"Feature","properties":{"id":"73df6fa9d1e94b2981e3ae60","name":"永和國民運動中心地下停車場","category":"parking","facilityType":"offstreet-parking","sourceUpdatedAt":"2026-07-21T02:58:29.534Z","carCapacity":288},"geometry":{"type":"Point","coordinates":[121.5251029,25.003185]}},{"type":"Feature","properties":{"id":"76d43b5f0a9f84a50a3e312b","name":"振順停車場","category":"parking","facilityType":"offstreet-parking","sourceUpdatedAt":"2026-07-21T02:58:29.534Z","carCapacity":75},"geometry":{"type":"Point","coordinates":[121.515174,25.0188023]}},{"type":"Feature","properties":{"id":"a9c96d31de7c1a7c22b20deb","name":"Times永和永貞路停車場","category":"parking","facilityType":"offstreet-parking","sourceUpdatedAt":"2026-07-21T02:58:29.534Z","carCapacity":72},"geometry":{"type":"Point","coordinates":[121.5093037,25.0073297]}},{"type":"Feature","properties":{"id":"169cd253055ccbbc591b5eac","name":"永和花園停車場","category":"parking","facilityType":"offstreet-parking","sourceUpdatedAt":"2026-07-21T02:58:29.534Z","carCapacity":96},"geometry":{"type":"Point","coordinates":[121.529291,25.001205]}},{"type":"Feature","properties":{"id":"53e2b42036fc4c310f87809a","name":"永和花園停車二場","category":"parking","facilityType":"offstreet-parking","sourceUpdatedAt":"2026-07-21T02:58:29.534Z","carCapacity":50},"geometry":{"type":"Point","coordinates":[121.52937,25.00072]}},{"type":"Feature","properties":{"id":"48625b815af796c5eff455ee","name":"永平國小平面停車場","category":"parking","facilityType":"offstreet-parking","sourceUpdatedAt":"2026-07-21T02:58:29.534Z","carCapacity":36},"geometry":{"type":"Point","coordinates":[121.505779,25.0078834]}},{"type":"Feature","properties":{"id":"4459c5dc51a2377c5764c866","name":"鴻霖停車場","category":"parking","facilityType":"offstreet-parking","sourceUpdatedAt":"2026-07-21T02:58:29.534Z","carCapacity":10},"geometry":{"type":"Point","coordinates":[121.5295172,25.0022214]}},{"type":"Feature","properties":{"id":"4a314649dbe2b58d2567db44","name":"永和國小平面停車場","category":"parking","facilityType":"offstreet-parking","sourceUpdatedAt":"2026-07-21T02:58:29.534Z","carCapacity":51},"geometry":{"type":"Point","coordinates":[121.5174148,25.0026071]}},{"type":"Feature","properties":{"id":"5d9bde12b22e7fd56a4636f5","name":"永龍停車場","category":"parking","facilityType":"offstreet-parking","sourceUpdatedAt":"2026-07-21T02:58:29.534Z","carCapacity":54},"geometry":{"type":"Point","coordinates":[121.5293,25.00146]}},{"type":"Feature","properties":{"id":"ce059c692d8c12f5714ed5da","name":"USPACE永和耕莘醫院停車場","category":"parking","facilityType":"offstreet-parking","sourceUpdatedAt":"2026-07-21T02:58:29.534Z","carCapacity":38},"geometry":{"type":"Point","coordinates":[121.5174244,25.0113056]}},{"type":"Feature","properties":{"id":"c6d807f2a681eae2a04a1487","name":"Times永和中和路停車場","category":"parking","facilityType":"offstreet-parking","sourceUpdatedAt":"2026-07-21T02:58:29.534Z","carCapacity":6},"geometry":{"type":"Point","coordinates":[121.5123457,25.0043363]}},{"type":"Feature","properties":{"id":"9f66f1603e5368806483b300","name":"錢櫃永和店停車場","category":"parking","facilityType":"offstreet-parking","sourceUpdatedAt":"2026-07-21T02:58:29.534Z","carCapacity":29},"geometry":{"type":"Point","coordinates":[121.5139505,25.0086047]}},{"type":"Feature","properties":{"id":"f43ef51a388aae15b5402c34","name":"大家停車二場","category":"parking","facilityType":"offstreet-parking","sourceUpdatedAt":"2026-07-21T02:58:29.534Z","carCapacity":480},"geometry":{"type":"Point","coordinates":[121.5292338,25.0047413]}},{"type":"Feature","properties":{"id":"c162e7b5adfa94b9a82446a9","name":"台灣聯通永一停車場","category":"parking","facilityType":"offstreet-parking","sourceUpdatedAt":"2026-07-21T02:58:29.534Z","carCapacity":19},"geometry":{"type":"Point","coordinates":[121.5152083,25.0120672]}},{"type":"Feature","properties":{"id":"9a0140ab1dd0e5ae0f88e196","name":"永和國小地下停車場","category":"parking","facilityType":"offstreet-parking","sourceUpdatedAt":"2026-07-21T02:58:29.534Z","carCapacity":283},"geometry":{"type":"Point","coordinates":[121.5164785,25.0030753]}},{"type":"Feature","properties":{"id":"d139e21a296796bcb0a3981f","name":"茂霖停車場","category":"parking","facilityType":"offstreet-parking","sourceUpdatedAt":"2026-07-21T02:58:29.534Z","carCapacity":23},"geometry":{"type":"Point","coordinates":[121.529612,25.0058413]}},{"type":"Feature","properties":{"id":"cd100f2d81cc2cfea6b35703","name":"秀朗福利站附設平面停車場","category":"parking","facilityType":"offstreet-parking","sourceUpdatedAt":"2026-07-21T02:58:29.534Z","carCapacity":131},"geometry":{"type":"Point","coordinates":[121.5246365,25.0029971]}},{"type":"Feature","properties":{"id":"88030aae4ae29d962fc72886","name":"大誠停車場","category":"parking","facilityType":"offstreet-parking","sourceUpdatedAt":"2026-07-21T02:58:29.534Z","carCapacity":32},"geometry":{"type":"Point","coordinates":[121.5194582,24.9966459]}},{"type":"Feature","properties":{"id":"71647aea00738551b051aeb8","name":"Times永和豫溪街停車場","category":"parking","facilityType":"offstreet-parking","sourceUpdatedAt":"2026-07-21T02:58:29.534Z","carCapacity":50},"geometry":{"type":"Point","coordinates":[121.5193965,25.0100032]}},{"type":"Feature","properties":{"id":"b1cdea89b4f35cc2955c986b","name":"永安停車場","category":"parking","facilityType":"offstreet-parking","sourceUpdatedAt":"2026-07-21T02:58:29.534Z","carCapacity":72},"geometry":{"type":"Point","coordinates":[121.5267779,25.0033506]}},{"type":"Feature","properties":{"id":"e0c8448c40d50c9a9753964e","name":"中信平面汽車停車場","category":"parking","facilityType":"offstreet-parking","sourceUpdatedAt":"2026-07-21T02:58:29.534Z","carCapacity":72},"geometry":{"type":"Point","coordinates":[121.5190054,25.0126589]}},{"type":"Feature","properties":{"id":"4d556e2d2a813da3d6dad6d8","name":"永和區保生路平面停車場","category":"parking","facilityType":"offstreet-parking","sourceUpdatedAt":"2026-07-21T02:58:29.534Z","carCapacity":31},"geometry":{"type":"Point","coordinates":[121.5049733,25.0121835]}},{"type":"Feature","properties":{"id":"08eb9f0bc0a75f17374ed2bf","name":"停佳安國光停車場","category":"parking","facilityType":"offstreet-parking","sourceUpdatedAt":"2026-07-21T02:58:29.534Z","carCapacity":38},"geometry":{"type":"Point","coordinates":[121.5184657,25.0082297]}},{"type":"Feature","properties":{"id":"6d612434c3762ff4b88f51d6","name":"福和停車場","category":"parking","facilityType":"offstreet-parking","sourceUpdatedAt":"2026-07-21T02:58:29.534Z","carCapacity":102},"geometry":{"type":"Point","coordinates":[121.5286384,25.007515]}},{"type":"Feature","properties":{"id":"41afdceb493acf866d97f32c","name":"綠寶石區停車場","category":"parking","facilityType":"offstreet-parking","sourceUpdatedAt":"2026-07-21T02:58:29.534Z","carCapacity":764},"geometry":{"type":"Point","coordinates":[121.514527,25.0197525]}},{"type":"Feature","properties":{"id":"61192481bab6b4587514464a","name":"綠光河岸區停車場","category":"parking","facilityType":"offstreet-parking","sourceUpdatedAt":"2026-07-21T02:58:29.534Z","carCapacity":442},"geometry":{"type":"Point","coordinates":[121.5162027,25.0188529]}},{"type":"Feature","properties":{"id":"0f4ba23d39b58a739b100b10","name":"福和橋區停車場","category":"parking","facilityType":"offstreet-parking","sourceUpdatedAt":"2026-07-21T02:58:29.534Z","carCapacity":276},"geometry":{"type":"Point","coordinates":[121.5283444,25.005259]}},{"type":"Feature","properties":{"id":"ff545ea72aadd7c91c12d408","name":"長堤區停車場","category":"parking","facilityType":"offstreet-parking","sourceUpdatedAt":"2026-07-21T02:58:29.534Z","carCapacity":95},"geometry":{"type":"Point","coordinates":[121.529198,25.002085]}},{"type":"Feature","properties":{"id":"7b5795b3360628e5d7eb3439","name":"彩虹樓地下停車場","category":"parking","facilityType":"offstreet-parking","sourceUpdatedAt":"2026-07-21T02:58:29.534Z","carCapacity":55},"geometry":{"type":"Point","coordinates":[121.5115864,25.0154878]}}]}
