{"type":"FeatureCollection","features":[{"type":"Feature","properties":{"id":"6c93ec1036f321ab0df4247e","name":"私立育才國小","category":"school","sourceUpdatedAt":"2026-07-21T02:58:41.233Z","facilityType":"school-campus","schoolLevels":["elementary"],"officialCodes":["011601"]},"geometry":{"type":"Point","coordinates":[121.5216421,25.0070606]}},{"type":"Feature","properties":{"id":"cd262494cfc2322042e09d4b","name":"私立及人國小","category":"school","sourceUpdatedAt":"2026-07-21T02:58:41.233Z","facilityType":"school-campus","schoolLevels":["elementary"],"officialCodes":["011603"]},"geometry":{"type":"Point","coordinates":[121.5120362,25.0156653]}},{"type":"Feature","properties":{"id":"d2f5bc617dca5eff31fc3574","name":"私立竹林國小","category":"school","sourceUpdatedAt":"2026-07-21T02:58:41.233Z","facilityType":"school-campus","schoolLevels":["elementary"],"officialCodes":["011604"]},"geometry":{"type":"Point","coordinates":[121.5173101,25.0144917]}},{"type":"Feature","properties":{"id":"9b2e2c12141ec700fe5650d5","name":"市立永和國小","category":"school","sourceUpdatedAt":"2026-07-21T02:58:41.233Z","facilityType":"school-campus","schoolLevels":["elementary"],"officialCodes":["014641"]},"geometry":{"type":"Point","coordinates":[121.5169899,25.0036088]}},{"type":"Feature","properties":{"id":"489dd7bf0cdfdde88e414503","name":"市立秀朗國小","category":"school","sourceUpdatedAt":"2026-07-21T02:58:41.233Z","facilityType":"school-campus","schoolLevels":["elementary"],"officialCodes":["014642"]},"geometry":{"type":"Point","coordinates":[121.5214099,24.9996785]}},{"type":"Feature","properties":{"id":"00ac9cbad5eb044b9ecd953a","name":"市立頂溪國小","category":"school","sourceUpdatedAt":"2026-07-21T02:58:41.233Z","facilityType":"school-campus","schoolLevels":["elementary"],"officialCodes":["014643"]},"geometry":{"type":"Point","coordinates":[121.5116085,25.0155344]}},{"type":"Feature","properties":{"id":"94c8535ffe53058bd7967c41","name":"市立網溪國小","category":"school","sourceUpdatedAt":"2026-07-21T02:58:41.233Z","facilityType":"school-campus","schoolLevels":["elementary"],"officialCodes":["014644"]},"geometry":{"type":"Point","coordinates":[121.51934,25.0129357]}},{"type":"Feature","properties":{"id":"6ff9a6a535026dff0acda2ec","name":"市立永平國小","category":"school","sourceUpdatedAt":"2026-07-21T02:58:41.233Z","facilityType":"school-campus","schoolLevels":["elementary"],"officialCodes":["014645"]},"geometry":{"type":"Point","coordinates":[121.5057169,25.0080526]}},{"type":"Feature","properties":{"id":"43895f3136266aef41a45498","name":"市立永和國中","category":"school","sourceUpdatedAt":"2026-07-21T02:58:41.233Z","facilityType":"school-campus","schoolLevels":["junior"],"officialCodes":["014516"]},"geometry":{"type":"Point","coordinates":[121.5233192,25.0066894]}},{"type":"Feature","properties":{"id":"04eb052f851617d50975a9cf","name":"市立福和國中","category":"school","sourceUpdatedAt":"2026-07-21T02:58:41.233Z","facilityType":"school-campus","schoolLevels":["junior"],"officialCodes":["014517"]},"geometry":{"type":"Point","coordinates":[121.5208559,25.0039983]}},{"type":"Feature","properties":{"id":"ed70654d93bc707925e48b2c","name":"私立復興商工","category":"school","sourceUpdatedAt":"2026-07-21T02:58:41.233Z","facilityType":"school-campus","schoolLevels":["senior"],"officialCodes":["11407"]},"geometry":{"type":"Point","coordinates":[121.5185949,25.0034922]}},{"type":"Feature","properties":{"id":"86e39e6a9a3347b15cdd266c","name":"私立智光商工","category":"school","sourceUpdatedAt":"2026-07-21T02:58:41.233Z","facilityType":"school-campus","schoolLevels":["senior"],"officialCodes":["11420"]},"geometry":{"type":"Point","coordinates":[121.514273,24.9956871]}},{"type":"Feature","properties":{"id":"b536a7d318ca9f30d2bac141","name":"市立永平高中","category":"school","sourceUpdatedAt":"2026-07-21T02:58:41.233Z","facilityType":"school-campus","schoolLevels":["senior"],"officialCodes":["14315"]},"geometry":{"type":"Point","coordinates":[121.5086259,25.0107515]}}]}
